{"type":"FeatureCollection", "features": [
{"type":"Feature","geometry":{"type":"Point","coordinates":[39.599641276987626,13.43970803209,0,-1.7976931348623157e+308]},"properties":{"Name_First":"Ashegoda","Latitude_F":13.4397080321,"Longitude_":39.599641277,"New_EEP_Re":"","Year_of_Op":"2006","NO_First":5,"Old_EEP_Re":"North","Poletical_":"Tigray","TYPE_First":"SwitchYared","VOLTAGE_LE":230,"Voltage_Sp":"","Work_Unit_":"GO","ORIG_FID":0}},
{"type":"Feature","geometry":{"type":"Point","coordinates":[39.67159803524421,12.76631264514531,0,-1.7976931348623157e+308]},"properties":{"Name_First":"MEHONI","Latitude_F":12.7663126451,"Longitude_":39.6715980352,"New_EEP_Re":"North","Year_of_Op":"2016","NO_First":8,"Old_EEP_Re":"North","Poletical_":"Tigray","TYPE_First":"","VOLTAGE_LE":230,"Voltage_Sp":"230/33/15","Work_Unit_":"TSO","ORIG_FID":1}},
{"type":"Feature","geometry":{"type":"Point","coordinates":[39.57227551940956,12.422142431998692,0,-1.7976931348623157e+308]},"properties":{"Name_First":"ALAMATA","Latitude_F":12.422142432,"Longitude_":39.5722755194,"New_EEP_Re":"North","Year_of_Op":"1999","NO_First":4,"Old_EEP_Re":"North","Poletical_":"Tigray","TYPE_First":"","VOLTAGE_LE":230,"Voltage_Sp":"230/132/66/33/15","Work_Unit_":"TSO","ORIG_FID":2}},
{"type":"Feature","geometry":{"type":"Point","coordinates":[41.03003893789934,11.778206423332904,0,-1.7976931348623157e+308]},"properties":{"Name_First":"SEMERA","Latitude_F":11.7782064233,"Longitude_":41.0300389379,"New_EEP_Re":"NER","Year_of_Op":"2010","NO_First":9,"Old_EEP_Re":"North East","Poletical_":"Afar","TYPE_First":"","VOLTAGE_LE":230,"Voltage_Sp":"230/33","Work_Unit_":"TSO","ORIG_FID":3}},
{"type":"Feature","geometry":{"type":"Point","coordinates":[38.57027695314066,8.908166907878782,0,-1.7976931348623157e+308]},"properties":{"Name_First":"SEBETA II","Latitude_F":8.90816690788,"Longitude_":38.5702769531,"New_EEP_Re":"Central 3","Year_of_Op":"2009","NO_First":30,"Old_EEP_Re":"AAR","Poletical_":"Oromiya","TYPE_First":"","VOLTAGE_LE":400,"Voltage_Sp":"400/230/33/15","Work_Unit_":"TSO","ORIG_FID":4}},
{"type":"Feature","geometry":{"type":"Point","coordinates":[38.649832707843316,9.47379185211366,0,-1.7976931348623157e+308]},"properties":{"Name_First":"DERBA","Latitude_F":9.47379185211,"Longitude_":38.6498327078,"New_EEP_Re":"","Year_of_Op":"2011","NO_First":19,"Old_EEP_Re":"Central","Poletical_":"Oromiya","TYPE_First":"Industry","VOLTAGE_LE":132,"Voltage_Sp":"132/33/6.6","Work_Unit_":"Industry","ORIG_FID":5}},
{"type":"Feature","geometry":{"type":"Point","coordinates":[38.35341590914033,9.479011214099518,0,-1.7976931348623157e+308]},"properties":{"Name_First":"MUGER","Latitude_F":9.4790112141,"Longitude_":38.3534159091,"New_EEP_Re":"Central 1","Year_of_Op":"1976","NO_First":36,"Old_EEP_Re":"Central","Poletical_":"Oromiya","TYPE_First":"","VOLTAGE_LE":132,"Voltage_Sp":"132/33/15","Work_Unit_":"TSO","ORIG_FID":6}},
{"type":"Feature","geometry":{"type":"Point","coordinates":[38.51075448163646,9.012536262738616,0,-1.7976931348623157e+308]},"properties":{"Name_First":"HOLETA","Latitude_F":9.01253626274,"Longitude_":38.5107544816,"New_EEP_Re":"Central 3","Year_of_Op":"2017","NO_First":25,"Old_EEP_Re":"Central","Poletical_":"Oromiya","TYPE_First":"","VOLTAGE_LE":500,"Voltage_Sp":"500/400/132/33","Work_Unit_":"TSO","ORIG_FID":7}},
{"type":"Feature","geometry":{"type":"Point","coordinates":[38.68175772673224,8.978372089330241,0,-1.7976931348623157e+308]},"properties":{"Name_First":"SEBETA I","Latitude_F":8.97837208933,"Longitude_":38.6817577267,"New_EEP_Re":"Central 3","Year_of_Op":"1966","NO_First":29,"Old_EEP_Re":"AAR","Poletical_":"Oromiya","TYPE_First":"","VOLTAGE_LE":230,"Voltage_Sp":"230/132/45/33/15","Work_Unit_":"TSO","ORIG_FID":8}},
{"type":"Feature","geometry":{"type":"Point","coordinates":[38.74391906140547,9.141057807380319,0,-1.7976931348623157e+308]},"properties":{"Name_First":"SULULTA","Latitude_F":9.14105780738,"Longitude_":38.7439190614,"New_EEP_Re":"Central 1","Year_of_Op":"2010","NO_First":33,"Old_EEP_Re":"AAR","Poletical_":"Oromiya","TYPE_First":"","VOLTAGE_LE":400,"Voltage_Sp":"400/230/132/33/15","Work_Unit_":"TSO","ORIG_FID":9}},
{"type":"Feature","geometry":{"type":"Point","coordinates":[38.292886255472425,6.42079185816386,0,-1.7976931348623157e+308]},"properties":{"Name_First":"DILLA","Latitude_F":6.42079185816,"Longitude_":38.2928862555,"New_EEP_Re":"South 1","Year_of_Op":"2006","NO_First":3,"Old_EEP_Re":"South","Poletical_":"South","TYPE_First":"GIS","VOLTAGE_LE":132,"Voltage_Sp":"132/33/15","Work_Unit_":"TSO","ORIG_FID":10}},
{"type":"Feature","geometry":{"type":"Point","coordinates":[37.86101073211835,11.066577259062162,0,-1.7976931348623157e+308]},"properties":{"Name_First":"MOTA","Latitude_F":11.0665772591,"Longitude_":37.8610107321,"New_EEP_Re":"Northwest","Year_of_Op":"2006","NO_First":8,"Old_EEP_Re":"North West","Poletical_":"Amhara","TYPE_First":"","VOLTAGE_LE":230,"Voltage_Sp":"230/33","Work_Unit_":"TSO","ORIG_FID":11}},
{"type":"Feature","geometry":{"type":"Point","coordinates":[37.37889919833312,11.564460702184743,0,-1.7976931348623157e+308]},"properties":{"Name_First":"BAHIRDAR II","Latitude_F":11.5644607022,"Longitude_":37.3788991983,"New_EEP_Re":"Northwest","Year_of_Op":"1998","NO_First":2,"Old_EEP_Re":"North West","Poletical_":"Amhara","TYPE_First":"","VOLTAGE_LE":400,"Voltage_Sp":"400/230/132/66/33/15","Work_Unit_":"TSO","ORIG_FID":12}},
{"type":"Feature","geometry":{"type":"Point","coordinates":[36.41895962919461,12.763951469067761,0,-1.7976931348623157e+308]},"properties":{"Name_First":"METEMA","Latitude_F":12.7639514691,"Longitude_":36.4189596292,"New_EEP_Re":"Northwest","Year_of_Op":"2008","NO_First":7,"Old_EEP_Re":"North West","Poletical_":"Amhara","TYPE_First":"","VOLTAGE_LE":230,"Voltage_Sp":"230","Work_Unit_":"TSO","ORIG_FID":13}},
{"type":"Feature","geometry":{"type":"Point","coordinates":[37.43612758547379,12.553343651417602,0,-1.7976931348623157e+308]},"properties":{"Name_First":"AZEZO","Latitude_F":12.5533436514,"Longitude_":37.4361275855,"New_EEP_Re":"Northwest","Year_of_Op":"2002","NO_First":1,"Old_EEP_Re":"North West","Poletical_":"Amhara","TYPE_First":"","VOLTAGE_LE":230,"Voltage_Sp":"230/66/33/15","Work_Unit_":"TSO","ORIG_FID":14}},
{"type":"Feature","geometry":{"type":"Point","coordinates":[37.60063337381198,11.488215392873613,0,-1.7976931348623157e+308]},"properties":{"Name_First":"Tis Abay II","Latitude_F":11.4882153929,"Longitude_":37.6006333738,"New_EEP_Re":"","Year_of_Op":"2001","NO_First":10,"Old_EEP_Re":"North West","Poletical_":"Amhara","TYPE_First":"SwitchYared","VOLTAGE_LE":132,"Voltage_Sp":"10.5/132","Work_Unit_":"GO","ORIG_FID":15}},
{"type":"Feature","geometry":{"type":"Point","coordinates":[38.46087082883513,11.724005050880836,0,-1.7976931348623157e+308]},"properties":{"Name_First":"NEFAS MAWUCHA","Latitude_F":11.7240050509,"Longitude_":38.4608708288,"New_EEP_Re":"Northwest","Year_of_Op":"2010","NO_First":9,"Old_EEP_Re":"North West","Poletical_":"Amhara","TYPE_First":"","VOLTAGE_LE":230,"Voltage_Sp":"230/33/15","Work_Unit_":"TSO","ORIG_FID":16}},
{"type":"Feature","geometry":{"type":"Point","coordinates":[36.72657777638796,5.513162094114107,0,-1.7976931348623157e+308]},"properties":{"Name_First":"KEYAFER","Latitude_F":5.51316209411,"Longitude_":36.7265777764,"New_EEP_Re":"South 2","Year_of_Op":"","NO_First":11,"Old_EEP_Re":"South","Poletical_":"South","TYPE_First":"","VOLTAGE_LE":132,"Voltage_Sp":"132/33","Work_Unit_":"TSO","ORIG_FID":17}},
{"type":"Feature","geometry":{"type":"Point","coordinates":[36.90229499435441,6.303849020266675,0,-1.7976931348623157e+308]},"properties":{"Name_First":"SAWLA","Latitude_F":6.30384902027,"Longitude_":36.9022949944,"New_EEP_Re":"South 2","Year_of_Op":"2007","NO_First":13,"Old_EEP_Re":"South","Poletical_":"South","TYPE_First":"","VOLTAGE_LE":132,"Voltage_Sp":"132/66/33","Work_Unit_":"TSO","ORIG_FID":18}},
{"type":"Feature","geometry":{"type":"Point","coordinates":[37.30702628852852,6.842564112845029,0,-1.7976931348623157e+308]},"properties":{"Name_First":"Gilgel Gibe III","Latitude_F":6.84256411285,"Longitude_":37.3070262885,"New_EEP_Re":"","Year_of_Op":"2009","NO_First":5,"Old_EEP_Re":"South","Poletical_":"South","TYPE_First":"SwitchYared","VOLTAGE_LE":400,"Voltage_Sp":"400/230/132/","Work_Unit_":"GO","ORIG_FID":19}},
{"type":"Feature","geometry":{"type":"Point","coordinates":[38.89760564633225,5.765519766070849,0,-1.7976931348623157e+308]},"properties":{"Name_First":"SHAKISO","Latitude_F":5.76551976607,"Longitude_":38.8976056463,"New_EEP_Re":"South 1","Year_of_Op":"1988","NO_First":14,"Old_EEP_Re":"South","Poletical_":"South","TYPE_First":"GIS","VOLTAGE_LE":132,"Voltage_Sp":"132/66/33","Work_Unit_":"TSO","ORIG_FID":20}},
{"type":"Feature","geometry":{"type":"Point","coordinates":[38.37505697642301,6.679638587938134,0,-1.7976931348623157e+308]},"properties":{"Name_First":"YIRGALEM II","Latitude_F":6.67963858794,"Longitude_":38.3750569764,"New_EEP_Re":"South 1","Year_of_Op":"2019","NO_First":22,"Old_EEP_Re":"South","Poletical_":"South","TYPE_First":"","VOLTAGE_LE":400,"Voltage_Sp":"400/230/132/15","Work_Unit_":"TSO","ORIG_FID":21}},
{"type":"Feature","geometry":{"type":"Point","coordinates":[39.53115365415584,9.660922281046007,0,-1.7976931348623157e+308]},"properties":{"Name_First":"DEBREBERHAN","Latitude_F":9.66092228105,"Longitude_":39.5311536542,"New_EEP_Re":"Central 1","Year_of_Op":"2014","NO_First":15,"Old_EEP_Re":"Central","Poletical_":"Amhara","TYPE_First":"GIS","VOLTAGE_LE":132,"Voltage_Sp":"132/33/15","Work_Unit_":"TSO","ORIG_FID":22}},
{"type":"Feature","geometry":{"type":"Point","coordinates":[39.46575791230532,9.659371653874611,0,-1.7976931348623157e+308]},"properties":{"Name_First":"DEBREBERHAN II","Latitude_F":9.65937165387,"Longitude_":39.4657579123,"New_EEP_Re":"Central 1","Year_of_Op":"2018","NO_First":16,"Old_EEP_Re":"Central","Poletical_":"Amhara","TYPE_First":"","VOLTAGE_LE":230,"Voltage_Sp":"230/132/33/15","Work_Unit_":"TSO","ORIG_FID":23}},
{"type":"Feature","geometry":{"type":"Point","coordinates":[43.55717049675691,5.965648028135671,0,-1.7976931348623157e+308]},"properties":{"Name_First":"GODE","Latitude_F":5.96564802814,"Longitude_":43.5571704968,"New_EEP_Re":"East2","Year_of_Op":"2012","NO_First":15,"Old_EEP_Re":"East","Poletical_":"Somali","TYPE_First":"","VOLTAGE_LE":230,"Voltage_Sp":"230/132/33","Work_Unit_":"TSO","ORIG_FID":24}},
{"type":"Feature","geometry":{"type":"Point","coordinates":[41.639594291214244,9.613900115298284,0,-1.7976931348623157e+308]},"properties":{"Name_First":"HURSO","Latitude_F":9.6139001153,"Longitude_":41.6395942912,"New_EEP_Re":"East 1","Year_of_Op":"2016","NO_First":18,"Old_EEP_Re":"East","Poletical_":"Somali","TYPE_First":"","VOLTAGE_LE":230,"Voltage_Sp":"230/132/33/15","Work_Unit_":"TSO","ORIG_FID":25}},
{"type":"Feature","geometry":{"type":"Point","coordinates":[41.62981711919659,9.617802338772544,0,-1.7976931348623157e+308]},"properties":{"Name_First":"HURSO TS","Latitude_F":9.61780233877,"Longitude_":41.6298171192,"New_EEP_Re":"","Year_of_Op":"2017","NO_First":19,"Old_EEP_Re":"East","Poletical_":"Somali","TYPE_First":"Traction Substation","VOLTAGE_LE":230,"Voltage_Sp":"","Work_Unit_":"Railway","ORIG_FID":26}},
{"type":"Feature","geometry":{"type":"Point","coordinates":[41.837023954509924,9.605272979519288,0,-1.7976931348623157e+308]},"properties":{"Name_First":"DIRE DAWA III","Latitude_F":9.60527297952,"Longitude_":41.8370239545,"New_EEP_Re":"East 1","Year_of_Op":"1997","NO_First":11,"Old_EEP_Re":"East","Poletical_":"Dire Dawa","TYPE_First":"","VOLTAGE_LE":230,"Voltage_Sp":"230/132/33/15","Work_Unit_":"TSO","ORIG_FID":27}},
{"type":"Feature","geometry":{"type":"Point","coordinates":[38.24505383221471,5.619762343338119,0,-1.7976931348623157e+308]},"properties":{"Name_First":"HAGEREMARIYAM","Latitude_F":5.61976234334,"Longitude_":38.2450538322,"New_EEP_Re":"South 1","Year_of_Op":"2006","NO_First":6,"Old_EEP_Re":"South","Poletical_":"South","TYPE_First":"GIS","VOLTAGE_LE":132,"Voltage_Sp":"132/33","Work_Unit_":"TSO","ORIG_FID":28}},
{"type":"Feature","geometry":{"type":"Point","coordinates":[38.6793711712181,3.8717663302139824,0,-1.7976931348623157e+308]},"properties":{"Name_First":"BUKULU GOMA","Latitude_F":3.87176633021,"Longitude_":38.6793711712,"New_EEP_Re":"South I","Year_of_Op":"2011","NO_First":2,"Old_EEP_Re":"South","Poletical_":"Oromiya","TYPE_First":"","VOLTAGE_LE":132,"Voltage_Sp":"132/33","Work_Unit_":"TSO","ORIG_FID":29}},
{"type":"Feature","geometry":{"type":"Point","coordinates":[37.4674634817593,9.008924623638656,0,-1.7976931348623157e+308]},"properties":{"Name_First":"Ghedo","Latitude_F":9.00892462364,"Longitude_":37.4674634818,"New_EEP_Re":"West","Year_of_Op":"2006","NO_First":6,"Old_EEP_Re":"West","Poletical_":"Oromiya","TYPE_First":"","VOLTAGE_LE":230,"Voltage_Sp":"230/132/15","Work_Unit_":"TSO","ORIG_FID":30}},
{"type":"Feature","geometry":{"type":"Point","coordinates":[37.381385973785406,7.8854735026658735,0,-1.7976931348623157e+308]},"properties":{"Name_First":"Gibe New (Sekoru)","Latitude_F":7.88547350267,"Longitude_":37.3813859738,"New_EEP_Re":"SWR","Year_of_Op":"2009","NO_First":8,"Old_EEP_Re":"South West","Poletical_":"Oromiya","TYPE_First":"","VOLTAGE_LE":400,"Voltage_Sp":"400/230/132/33","Work_Unit_":"TSO","ORIG_FID":31}},
{"type":"Feature","geometry":{"type":"Point","coordinates":[36.8662499224845,7.691487060804383,0,-1.7976931348623157e+308]},"properties":{"Name_First":"JIMMA II","Latitude_F":7.6914870608,"Longitude_":36.8662499225,"New_EEP_Re":"SWR","Year_of_Op":"2017","NO_First":10,"Old_EEP_Re":"South West","Poletical_":"Oromiya","TYPE_First":"","VOLTAGE_LE":230,"Voltage_Sp":"230/132","Work_Unit_":"TSO","ORIG_FID":32}},
{"type":"Feature","geometry":{"type":"Point","coordinates":[36.83001246992309,7.690255703751746,0,-1.7976931348623157e+308]},"properties":{"Name_First":"Jimma I","Latitude_F":7.69025570375,"Longitude_":36.8300124699,"New_EEP_Re":"SWR","Year_of_Op":"2006","NO_First":11,"Old_EEP_Re":"South West","Poletical_":"Oromiya","TYPE_First":"","VOLTAGE_LE":132,"Voltage_Sp":"230/132","Work_Unit_":"TSO","ORIG_FID":33}},
{"type":"Feature","geometry":{"type":"Point","coordinates":[35.575031848584025,7.003665178758583,0,-1.7976931348623157e+308]},"properties":{"Name_First":"MIZAN","Latitude_F":7.00366517876,"Longitude_":35.5750318486,"New_EEP_Re":"SWR","Year_of_Op":"2005","NO_First":13,"Old_EEP_Re":"South West","Poletical_":"South","TYPE_First":"","VOLTAGE_LE":132,"Voltage_Sp":"132/66/33/15","Work_Unit_":"TSO","ORIG_FID":34}},
{"type":"Feature","geometry":{"type":"Point","coordinates":[36.236722026716,7.290231201002753,0,-1.7976931348623157e+308]},"properties":{"Name_First":"BONGA","Latitude_F":7.290231201,"Longitude_":36.2367220267,"New_EEP_Re":"SWR","Year_of_Op":"2006","NO_First":4,"Old_EEP_Re":"South West","Poletical_":"South","TYPE_First":"GIS","VOLTAGE_LE":132,"Voltage_Sp":"132/33/15","Work_Unit_":"TSO","ORIG_FID":35}},
{"type":"Feature","geometry":{"type":"Point","coordinates":[36.32738354004722,8.434559322770705,0,-1.7976931348623157e+308]},"properties":{"Name_First":"BEDELE","Latitude_F":8.43455932277,"Longitude_":36.32738354,"New_EEP_Re":"SWR","Year_of_Op":"2006","NO_First":3,"Old_EEP_Re":"South West","Poletical_":"Oromiya","TYPE_First":"","VOLTAGE_LE":230,"Voltage_Sp":"230/132/15","Work_Unit_":"TSO","ORIG_FID":36}},
{"type":"Feature","geometry":{"type":"Point","coordinates":[34.605709136754506,8.252514346560098,0,-1.7976931348623157e+308]},"properties":{"Name_First":"GAMBELA II","Latitude_F":8.25251434656,"Longitude_":34.6057091368,"New_EEP_Re":"SWR","Year_of_Op":"2010","NO_First":5,"Old_EEP_Re":"South West","Poletical_":"Gambela","TYPE_First":"","VOLTAGE_LE":230,"Voltage_Sp":"230/66/33","Work_Unit_":"TSO","ORIG_FID":37}},
{"type":"Feature","geometry":{"type":"Point","coordinates":[35.581118595313185,8.283069491463198,0,-1.7976931348623157e+308]},"properties":{"Name_First":"METU","Latitude_F":8.28306949146,"Longitude_":35.5811185953,"New_EEP_Re":"SWR","Year_of_Op":"","NO_First":12,"Old_EEP_Re":"South West","Poletical_":"Oromiya","TYPE_First":"","VOLTAGE_LE":230,"Voltage_Sp":"230/66/33/15","Work_Unit_":"TSO","ORIG_FID":38}},
{"type":"Feature","geometry":{"type":"Point","coordinates":[36.16803613513614,9.030627802872065,0,-1.7976931348623157e+308]},"properties":{"Name_First":"DEDESA","Latitude_F":9.03062780287,"Longitude_":36.1680361351,"New_EEP_Re":"West","Year_of_Op":"2017","NO_First":3,"Old_EEP_Re":"West","Poletical_":"Oromiya","TYPE_First":"","VOLTAGE_LE":500,"Voltage_Sp":"500/132/33","Work_Unit_":"TSO","ORIG_FID":39}},
{"type":"Feature","geometry":{"type":"Point","coordinates":[35.09856455551404,9.790882842188932,0,-1.7976931348623157e+308]},"properties":{"Name_First":"MENDI","Latitude_F":9.79088284219,"Longitude_":35.0985645555,"New_EEP_Re":"West","Year_of_Op":"2006","NO_First":11,"Old_EEP_Re":"West","Poletical_":"Oromiya","TYPE_First":"","VOLTAGE_LE":132,"Voltage_Sp":"132/33","Work_Unit_":"TSO","ORIG_FID":40}},
{"type":"Feature","geometry":{"type":"Point","coordinates":[34.55727545502103,10.067852783517221,0,-1.7976931348623157e+308]},"properties":{"Name_First":"ASOSA","Latitude_F":10.0678527835,"Longitude_":34.557275455,"New_EEP_Re":"West","Year_of_Op":"2006","NO_First":1,"Old_EEP_Re":"West","Poletical_":"Benishangul","TYPE_First":"","VOLTAGE_LE":132,"Voltage_Sp":"132/33/15","Work_Unit_":"TSO","ORIG_FID":41}},
{"type":"Feature","geometry":{"type":"Point","coordinates":[37.362595827238486,9.560594959676559,0,-1.7976931348623157e+308]},"properties":{"Name_First":"FINCHA II","Latitude_F":9.56059495968,"Longitude_":37.3625958272,"New_EEP_Re":"West","Year_of_Op":"2012","NO_First":5,"Old_EEP_Re":"West","Poletical_":"Oromiya","TYPE_First":"","VOLTAGE_LE":230,"Voltage_Sp":"230/33/15","Work_Unit_":"TSO","ORIG_FID":42}},
{"type":"Feature","geometry":{"type":"Point","coordinates":[37.41214400718902,9.56011354460548,0,-1.7976931348623157e+308]},"properties":{"Name_First":"Fincha","Latitude_F":9.56011354461,"Longitude_":37.4121440072,"New_EEP_Re":"","Year_of_Op":"1996","NO_First":4,"Old_EEP_Re":"West","Poletical_":"Oromiya","TYPE_First":"SwitchYared","VOLTAGE_LE":230,"Voltage_Sp":"13.2/66/230","Work_Unit_":"GO","ORIG_FID":43}},
{"type":"Feature","geometry":{"type":"Point","coordinates":[37.26940682855246,9.789433060641038,0,-1.7976931348623157e+308]},"properties":{"Name_First":"Neshe","Latitude_F":9.78943306064,"Longitude_":37.2694068286,"New_EEP_Re":"","Year_of_Op":"2011","NO_First":14,"Old_EEP_Re":"West","Poletical_":"Oromiya","TYPE_First":"SwitchYared","VOLTAGE_LE":230,"Voltage_Sp":"13.8/230","Work_Unit_":"GO","ORIG_FID":44}},
{"type":"Feature","geometry":{"type":"Point","coordinates":[36.50598945771703,9.059354056273202,0,-1.7976931348623157e+308]},"properties":{"Name_First":"NEKEMTE","Latitude_F":9.05935405627,"Longitude_":36.5059894577,"New_EEP_Re":"West","Year_of_Op":"2001","NO_First":13,"Old_EEP_Re":"West","Poletical_":"Oromiya","TYPE_First":"","VOLTAGE_LE":132,"Voltage_Sp":"132/33/15","Work_Unit_":"TSO","ORIG_FID":45}},
{"type":"Feature","geometry":{"type":"Point","coordinates":[40.17697241651785,9.00280161774702,0,-1.7976931348623157e+308]},"properties":{"Name_First":"Awash 7Kilo","Latitude_F":9.00280161775,"Longitude_":40.1769724165,"New_EEP_Re":"East 1","Year_of_Op":"2014","NO_First":6,"Old_EEP_Re":"Central","Poletical_":"Afar","TYPE_First":"SwitchYared","VOLTAGE_LE":230,"Voltage_Sp":"","Work_Unit_":"GO","ORIG_FID":46}},
{"type":"Feature","geometry":{"type":"Point","coordinates":[40.155451967627016,9.003844266592283,0,-1.7976931348623157e+308]},"properties":{"Name_First":"AWASH TS","Latitude_F":9.00384426659,"Longitude_":40.1554519676,"New_EEP_Re":"","Year_of_Op":"2017","NO_First":10,"Old_EEP_Re":"Central","Poletical_":"Afar","TYPE_First":"Traction Substation","VOLTAGE_LE":132,"Voltage_Sp":"","Work_Unit_":"Railway","ORIG_FID":47}},
{"type":"Feature","geometry":{"type":"Point","coordinates":[39.925316080735215,8.91430926601108,0,-1.7976931348623157e+308]},"properties":{"Name_First":"METAHARA TS","Latitude_F":8.91430926601,"Longitude_":39.9253160807,"New_EEP_Re":"","Year_of_Op":"2017","NO_First":32,"Old_EEP_Re":"Central","Poletical_":"Oromiya","TYPE_First":"Traction Substation","VOLTAGE_LE":132,"Voltage_Sp":"132/15","Work_Unit_":"Railway","ORIG_FID":48}},
{"type":"Feature","geometry":{"type":"Point","coordinates":[39.924841313554616,8.921860329569169,0,-1.7976931348623157e+308]},"properties":{"Name_First":"METAHARA","Latitude_F":8.92186032957,"Longitude_":39.9248413136,"New_EEP_Re":"Central 2","Year_of_Op":"2017","NO_First":31,"Old_EEP_Re":"Central","Poletical_":"Oromiya","TYPE_First":"MOBILE","VOLTAGE_LE":132,"Voltage_Sp":"132/27.5","Work_Unit_":"TSO","ORIG_FID":49}},
{"type":"Feature","geometry":{"type":"Point","coordinates":[39.59492408643984,8.843722837873067,0,-1.7976931348623157e+308]},"properties":{"Name_First":"MELKA JILO","Latitude_F":8.84372283787,"Longitude_":39.5949240864,"New_EEP_Re":"","Year_of_Op":"2017","NO_First":23,"Old_EEP_Re":"East","Poletical_":"Oromiya","TYPE_First":"Traction Substation","VOLTAGE_LE":132,"Voltage_Sp":"","Work_Unit_":"Railway","ORIG_FID":50}},
{"type":"Feature","geometry":{"type":"Point","coordinates":[39.15841839064848,8.47281719798629,0,-1.7976931348623157e+308]},"properties":{"Name_First":"Koka","Latitude_F":8.47281719799,"Longitude_":39.1584183906,"New_EEP_Re":"","Year_of_Op":"1960","NO_First":28,"Old_EEP_Re":"Central","Poletical_":"Oromiya","TYPE_First":"SwitchYared","VOLTAGE_LE":230,"Voltage_Sp":"10.5/15/132","Work_Unit_":"GO","ORIG_FID":51}},
{"type":"Feature","geometry":{"type":"Point","coordinates":[39.213834308118685,8.565854733508004,0,-1.7976931348623157e+308]},"properties":{"Name_First":"Adama II Wind Farm","Latitude_F":8.56585473351,"Longitude_":39.2138343081,"New_EEP_Re":"","Year_of_Op":"2015","NO_First":3,"Old_EEP_Re":"Central","Poletical_":"Oromiya","TYPE_First":"SwitchYared","VOLTAGE_LE":230,"Voltage_Sp":"33/230","Work_Unit_":"GO","ORIG_FID":52}},
{"type":"Feature","geometry":{"type":"Point","coordinates":[39.2332982888204,8.537797038068334,0,-1.7976931348623157e+308]},"properties":{"Name_First":"Adama I Wind Farm","Latitude_F":8.53779703807,"Longitude_":39.2332982888,"New_EEP_Re":"","Year_of_Op":"2012","NO_First":1,"Old_EEP_Re":"Central","Poletical_":"Oromiya","TYPE_First":"SwitchYared","VOLTAGE_LE":132,"Voltage_Sp":"33/132","Work_Unit_":"GO","ORIG_FID":53}},
{"type":"Feature","geometry":{"type":"Point","coordinates":[39.248060716916086,8.516993588154,0,-1.7976931348623157e+308]},"properties":{"Name_First":"NAZRET II","Latitude_F":8.51699358815,"Longitude_":39.2480607169,"New_EEP_Re":"Central 2","Year_of_Op":"2006","NO_First":2,"Old_EEP_Re":"Central","Poletical_":"Oromiya","TYPE_First":"","VOLTAGE_LE":230,"Voltage_Sp":"33/230","Work_Unit_":"TSO","ORIG_FID":54}},
{"type":"Feature","geometry":{"type":"Point","coordinates":[39.36074075267478,8.38401543084301,0,-1.7976931348623157e+308]},"properties":{"Name_First":"Awash III","Latitude_F":8.38401543084,"Longitude_":39.3607407527,"New_EEP_Re":"","Year_of_Op":"1968","NO_First":9,"Old_EEP_Re":"Central","Poletical_":"Oromiya","TYPE_First":"SwitchYared","VOLTAGE_LE":132,"Voltage_Sp":"10.5/132","Work_Unit_":"GO","ORIG_FID":55}},
{"type":"Feature","geometry":{"type":"Point","coordinates":[39.35217187986177,8.3925355507416,0,-1.7976931348623157e+308]},"properties":{"Name_First":"Awash II","Latitude_F":8.39253555074,"Longitude_":39.3521718799,"New_EEP_Re":"","Year_of_Op":"1966","NO_First":8,"Old_EEP_Re":"Central","Poletical_":"Oromiya","TYPE_First":"SwitchYared","VOLTAGE_LE":132,"Voltage_Sp":"10.5/132","Work_Unit_":"GO","ORIG_FID":56}},
{"type":"Feature","geometry":{"type":"Point","coordinates":[38.879807432675335,9.042202210850299,0,-1.7976931348623157e+308]},"properties":{"Name_First":"LEGETAFO","Latitude_F":9.04220221085,"Longitude_":38.8798074327,"New_EEP_Re":"Central 1","Year_of_Op":"2012","NO_First":23,"Old_EEP_Re":"AAR","Poletical_":"Oromiya","TYPE_First":"","VOLTAGE_LE":230,"Voltage_Sp":"230/132/33/15","Work_Unit_":"TSO","ORIG_FID":57}},
{"type":"Feature","geometry":{"type":"Point","coordinates":[38.440995346320925,9.79961954063483,0,-1.7976931348623157e+308]},"properties":{"Name_First":"GEBREGURACHA","Latitude_F":9.79961954063,"Longitude_":38.4409953463,"New_EEP_Re":"Central 1","Year_of_Op":"2017","NO_First":21,"Old_EEP_Re":"Central","Poletical_":"Oromiya","TYPE_First":"","VOLTAGE_LE":400,"Voltage_Sp":"400/230/66/33","Work_Unit_":"TSO","ORIG_FID":58}},
{"type":"Feature","geometry":{"type":"Point","coordinates":[37.782791112880226,10.273997483364367,0,-1.7976931348623157e+308]},"properties":{"Name_First":"DEBRE MARKOS","Latitude_F":10.2739974834,"Longitude_":37.7827911129,"New_EEP_Re":"Northwest","Year_of_Op":"2011","NO_First":4,"Old_EEP_Re":"North West","Poletical_":"Amhara","TYPE_First":"","VOLTAGE_LE":400,"Voltage_Sp":"400/230/66/15","Work_Unit_":"TSO","ORIG_FID":59}},
{"type":"Feature","geometry":{"type":"Point","coordinates":[39.1680811223536,10.889174313214198,0,-1.7976931348623157e+308]},"properties":{"Name_First":"AKESTA","Latitude_F":10.8891743132,"Longitude_":39.1680811224,"New_EEP_Re":"NER","Year_of_Op":"2006","NO_First":2,"Old_EEP_Re":"North East","Poletical_":"Amhara","TYPE_First":"","VOLTAGE_LE":132,"Voltage_Sp":"132/66/33","Work_Unit_":"TSO","ORIG_FID":60}},
{"type":"Feature","geometry":{"type":"Point","coordinates":[38.72039733767017,7.867467265029976,0,-1.7976931348623157e+308]},"properties":{"Name_First":"ADAMITULU","Latitude_F":7.86746726503,"Longitude_":38.7203973377,"New_EEP_Re":"Central 3","Year_of_Op":"2007","NO_First":4,"Old_EEP_Re":"Central","Poletical_":"Oromiya","TYPE_First":"","VOLTAGE_LE":132,"Voltage_Sp":"132/33/15","Work_Unit_":"TSO","ORIG_FID":61}},
{"type":"Feature","geometry":{"type":"Point","coordinates":[38.60733403398214,7.1911750080816015,0,-1.7976931348623157e+308]},"properties":{"Name_First":"SHASHEMENE","Latitude_F":7.19117500808,"Longitude_":38.607334034,"New_EEP_Re":"South 1","Year_of_Op":"2002","NO_First":15,"Old_EEP_Re":"South","Poletical_":"Oromiya","TYPE_First":"","VOLTAGE_LE":132,"Voltage_Sp":"132/33/15","Work_Unit_":"TSO","ORIG_FID":62}},
{"type":"Feature","geometry":{"type":"Point","coordinates":[38.08912674334188,7.295169231215198,0,-1.7976931348623157e+308]},"properties":{"Name_First":"HALABA","Latitude_F":7.29516923122,"Longitude_":38.0891267433,"New_EEP_Re":"South 2","Year_of_Op":"2015","NO_First":7,"Old_EEP_Re":"South","Poletical_":"South","TYPE_First":"","VOLTAGE_LE":230,"Voltage_Sp":"230/132/15","Work_Unit_":"TSO","ORIG_FID":63}},
{"type":"Feature","geometry":{"type":"Point","coordinates":[37.86206007991692,7.555106787356612,0,-1.7976931348623157e+308]},"properties":{"Name_First":"HOSANA","Latitude_F":7.55510678736,"Longitude_":37.8620600799,"New_EEP_Re":"South 2","Year_of_Op":"2009","NO_First":10,"Old_EEP_Re":"South","Poletical_":"South","TYPE_First":"","VOLTAGE_LE":230,"Voltage_Sp":"230/132/33/15","Work_Unit_":"TSO","ORIG_FID":64}},
{"type":"Feature","geometry":{"type":"Point","coordinates":[37.56576256527643,7.755796518694709,0,-1.7976931348623157e+308]},"properties":{"Name_First":"Gilgel Gibe II","Latitude_F":7.75579651869,"Longitude_":37.5657625653,"New_EEP_Re":"","Year_of_Op":"2009","NO_First":9,"Old_EEP_Re":"South West","Poletical_":"South","TYPE_First":"SwitchYared","VOLTAGE_LE":400,"Voltage_Sp":"400/230/33","Work_Unit_":"GO","ORIG_FID":65}},
{"type":"Feature","geometry":{"type":"Point","coordinates":[37.75849312458039,8.275012553513196,0,-1.7976931348623157e+308]},"properties":{"Name_First":"WOLKITE","Latitude_F":8.27501255351,"Longitude_":37.7584931246,"New_EEP_Re":"Central 3","Year_of_Op":"2003","NO_First":40,"Old_EEP_Re":"Central","Poletical_":"South","TYPE_First":"","VOLTAGE_LE":230,"Voltage_Sp":"230/66/33","Work_Unit_":"TSO","ORIG_FID":66}},
{"type":"Feature","geometry":{"type":"Point","coordinates":[38.39205418029979,8.128298857411162,0,-1.7976931348623157e+308]},"properties":{"Name_First":"BUTAJIRA","Latitude_F":8.12829885741,"Longitude_":38.3920541803,"New_EEP_Re":"Central 3","Year_of_Op":"2003","NO_First":12,"Old_EEP_Re":"Central","Poletical_":"South","TYPE_First":"","VOLTAGE_LE":132,"Voltage_Sp":"132/33/15","Work_Unit_":"TSO","ORIG_FID":67}},
{"type":"Feature","geometry":{"type":"Point","coordinates":[39.134524814374856,7.983163007533139,0,-1.7976931348623157e+308]},"properties":{"Name_First":"ASSELA","Latitude_F":7.98316300753,"Longitude_":39.1345248144,"New_EEP_Re":"Central 3","Year_of_Op":"1977","NO_First":5,"Old_EEP_Re":"Central","Poletical_":"Oromiya","TYPE_First":"","VOLTAGE_LE":132,"Voltage_Sp":"132/33/15","Work_Unit_":"TSO","ORIG_FID":68}},
{"type":"Feature","geometry":{"type":"Point","coordinates":[39.07142767357858,8.629693731402112,0,-1.7976931348623157e+308]},"properties":{"Name_First":"MOJO II","Latitude_F":8.6296937314,"Longitude_":39.0714276736,"New_EEP_Re":"Central 2","Year_of_Op":"2022","NO_First":34,"Old_EEP_Re":"Central","Poletical_":"Oromiya","TYPE_First":"","VOLTAGE_LE":230,"Voltage_Sp":"","Work_Unit_":"TSO","ORIG_FID":69}},
{"type":"Feature","geometry":{"type":"Point","coordinates":[39.032372587037464,8.729477260362954,0,-1.7976931348623157e+308]},"properties":{"Name_First":"KANORIA","Latitude_F":8.72947726036,"Longitude_":39.032372587,"New_EEP_Re":"","Year_of_Op":"2017","NO_First":20,"Old_EEP_Re":"AAR","Poletical_":"Oromiya","TYPE_First":"Industry","VOLTAGE_LE":132,"Voltage_Sp":"132/11","Work_Unit_":"Industry","ORIG_FID":70}},
{"type":"Feature","geometry":{"type":"Point","coordinates":[38.951947851261856,8.73068686622548,0,-1.7976931348623157e+308]},"properties":{"Name_First":"DEBREZEIT II","Latitude_F":8.73068686623,"Longitude_":38.9519478513,"New_EEP_Re":"Central 2","Year_of_Op":"2016","NO_First":17,"Old_EEP_Re":"Central","Poletical_":"Oromiya","TYPE_First":"GIS","VOLTAGE_LE":132,"Voltage_Sp":"132/15","Work_Unit_":"TSO","ORIG_FID":71}},
{"type":"Feature","geometry":{"type":"Point","coordinates":[38.927205756251986,8.746919584098707,0,-1.7976931348623157e+308]},"properties":{"Name_First":"DEBREZEIT III","Latitude_F":8.7469195841,"Longitude_":38.9272057563,"New_EEP_Re":"Central 2","Year_of_Op":"2021","NO_First":18,"Old_EEP_Re":"Central","Poletical_":"Oromiya","TYPE_First":"","VOLTAGE_LE":400,"Voltage_Sp":"400/230/33","Work_Unit_":"TSO","ORIG_FID":72}},
{"type":"Feature","geometry":{"type":"Point","coordinates":[38.89140130517653,8.78010079240244,0,-1.7976931348623157e+308]},"properties":{"Name_First":"DUKEM II","Latitude_F":8.7801007924,"Longitude_":38.8914013052,"New_EEP_Re":"Central 2","Year_of_Op":"2021","NO_First":20,"Old_EEP_Re":"Central","Poletical_":"Oromiya","TYPE_First":"","VOLTAGE_LE":230,"Voltage_Sp":"230/15","Work_Unit_":"TSO","ORIG_FID":73}},
{"type":"Feature","geometry":{"type":"Point","coordinates":[38.80470947352491,8.821826242401912,0,-1.7976931348623157e+308]},"properties":{"Name_First":"GELAN","Latitude_F":8.8218262424,"Longitude_":38.8047094735,"New_EEP_Re":"Central 2","Year_of_Op":"2014","NO_First":15,"Old_EEP_Re":"AAR","Poletical_":"Oromiya","TYPE_First":"","VOLTAGE_LE":400,"Voltage_Sp":"400/230/132/15","Work_Unit_":"TSO","ORIG_FID":74}},
{"type":"Feature","geometry":{"type":"Point","coordinates":[38.83016111147171,8.844434901267203,0,-1.7976931348623157e+308]},"properties":{"Name_First":"YESU","Latitude_F":8.84443490127,"Longitude_":38.8301611115,"New_EEP_Re":"","Year_of_Op":"2004","NO_First":37,"Old_EEP_Re":"AAR","Poletical_":"Addis Abeba","TYPE_First":"Industry","VOLTAGE_LE":132,"Voltage_Sp":"132/15","Work_Unit_":"Industry","ORIG_FID":75}},
{"type":"Feature","geometry":{"type":"Point","coordinates":[38.75624122737428,8.862189760951916,0,-1.7976931348623157e+308]},"properties":{"Name_First":"ENDODE TS","Latitude_F":8.86218976095,"Longitude_":38.7562412274,"New_EEP_Re":"","Year_of_Op":"2016","NO_First":38,"Old_EEP_Re":"AAR","Poletical_":"Addis Abeba","TYPE_First":"Traction Substation","VOLTAGE_LE":132,"Voltage_Sp":"132/33","Work_Unit_":"Railway","ORIG_FID":76}},
{"type":"Feature","geometry":{"type":"Point","coordinates":[38.75766430851518,8.884301157847332,0,-1.7976931348623157e+308]},"properties":{"Name_First":"KALITI I","Latitude_F":8.88430115785,"Longitude_":38.7576643085,"New_EEP_Re":"Central 3","Year_of_Op":"1966","NO_First":16,"Old_EEP_Re":"AAR","Poletical_":"Addis Abeba","TYPE_First":"","VOLTAGE_LE":230,"Voltage_Sp":"230/132/45","Work_Unit_":"TSO","ORIG_FID":77}},
{"type":"Feature","geometry":{"type":"Point","coordinates":[38.8484454872038,8.903231849159967,0,-1.7976931348623157e+308]},"properties":{"Name_First":"KOYE ABO","Latitude_F":8.90323184916,"Longitude_":38.8484454872,"New_EEP_Re":"Central 2","Year_of_Op":"2022","NO_First":22,"Old_EEP_Re":"AAR","Poletical_":"Addis Abeba","TYPE_First":"","VOLTAGE_LE":400,"Voltage_Sp":"400/230/15","Work_Unit_":"TSO","ORIG_FID":78}},
{"type":"Feature","geometry":{"type":"Point","coordinates":[38.80657561139605,8.926944752467868,0,-1.7976931348623157e+308]},"properties":{"Name_First":"KILINTO","Latitude_F":8.92694475247,"Longitude_":38.8065756114,"New_EEP_Re":"Central 2","Year_of_Op":"2022","NO_First":21,"Old_EEP_Re":"AAR","Poletical_":"Addis Abeba","TYPE_First":"","VOLTAGE_LE":230,"Voltage_Sp":"230/132/33/15","Work_Unit_":"TSO","ORIG_FID":79}},
{"type":"Feature","geometry":{"type":"Point","coordinates":[38.867743183309344,8.967846942374473,0,-1.7976931348623157e+308]},"properties":{"Name_First":"BOLE LEMI II","Latitude_F":8.96784694237,"Longitude_":38.8677431833,"New_EEP_Re":"Central 2","Year_of_Op":"2021","NO_First":10,"Old_EEP_Re":"AAR","Poletical_":"Addis Abeba","TYPE_First":"","VOLTAGE_LE":230,"Voltage_Sp":"230/132/33/15","Work_Unit_":"TSO","ORIG_FID":80}},
{"type":"Feature","geometry":{"type":"Point","coordinates":[38.823840653909485,9.032831797672705,0,-1.7976931348623157e+308]},"properties":{"Name_First":"COTOBIE","Latitude_F":9.03283179767,"Longitude_":38.8238406539,"New_EEP_Re":"Central 1","Year_of_Op":"1976","NO_First":11,"Old_EEP_Re":"AAR","Poletical_":"Addis Abeba","TYPE_First":"","VOLTAGE_LE":230,"Voltage_Sp":"230/132/45/33/15","Work_Unit_":"TSO","ORIG_FID":81}},
{"type":"Feature","geometry":{"type":"Point","coordinates":[38.76114674293013,8.946898889163307,0,-1.7976931348623157e+308]},"properties":{"Name_First":"KALITI II","Latitude_F":8.94689888916,"Longitude_":38.7611467429,"New_EEP_Re":"Central 3","Year_of_Op":"1996","NO_First":17,"Old_EEP_Re":"AAR","Poletical_":"Addis Abeba","TYPE_First":"","VOLTAGE_LE":132,"Voltage_Sp":"132/15","Work_Unit_":"TSO","ORIG_FID":82}},
{"type":"Feature","geometry":{"type":"Point","coordinates":[38.745922553569805,8.963444805242025,0,-1.7976931348623157e+308]},"properties":{"Name_First":"ADDIS SOUTH II [GOFA]","Latitude_F":8.96344480524,"Longitude_":38.7459225536,"New_EEP_Re":"Central 3","Year_of_Op":"2007","NO_First":5,"Old_EEP_Re":"AAR","Poletical_":"Addis Abeba","TYPE_First":"","VOLTAGE_LE":132,"Voltage_Sp":"132/15","Work_Unit_":"TSO","ORIG_FID":83}},
{"type":"Feature","geometry":{"type":"Point","coordinates":[38.73515744728377,8.949080182624124,0,-1.7976931348623157e+308]},"properties":{"Name_First":"MEKANISA","Latitude_F":8.94908018262,"Longitude_":38.7351574473,"New_EEP_Re":"Central 3","Year_of_Op":"2016","NO_First":24,"Old_EEP_Re":"AAR","Poletical_":"Addis Abeba","TYPE_First":"","VOLTAGE_LE":132,"Voltage_Sp":"132/15","Work_Unit_":"TSO","ORIG_FID":84}},
{"type":"Feature","geometry":{"type":"Point","coordinates":[38.65850416182369,9.068188968548453,0,-1.7976931348623157e+308]},"properties":{"Name_First":"GEFERSA","Latitude_F":9.06818896855,"Longitude_":38.6585041618,"New_EEP_Re":"Central 1","Year_of_Op":"1997","NO_First":14,"Old_EEP_Re":"AAR","Poletical_":"Oromiya","TYPE_First":"","VOLTAGE_LE":230,"Voltage_Sp":"230/132/66/45/15","Work_Unit_":"TSO","ORIG_FID":85}},
{"type":"Feature","geometry":{"type":"Point","coordinates":[36.62203139033824,14.266243404666719,0,-1.7976931348623157e+308]},"properties":{"Name_First":"HUMERA","Latitude_F":14.2662434047,"Longitude_":36.6220313903,"New_EEP_Re":"North","Year_of_Op":"2012","NO_First":7,"Old_EEP_Re":"North","Poletical_":"Tigray","TYPE_First":"","VOLTAGE_LE":230,"Voltage_Sp":"230/33/15","Work_Unit_":"TSO","ORIG_FID":86}},
{"type":"Feature","geometry":{"type":"Point","coordinates":[38.29243309551223,14.103852021047734,0,-1.7976931348623157e+308]},"properties":{"Name_First":"SHIRE","Latitude_F":14.103852021,"Longitude_":38.2924330955,"New_EEP_Re":"North","Year_of_Op":"2006","NO_First":11,"Old_EEP_Re":"North","Poletical_":"Tigray","TYPE_First":"","VOLTAGE_LE":230,"Voltage_Sp":"230/66/33/15","Work_Unit_":"TSO","ORIG_FID":87}},
{"type":"Feature","geometry":{"type":"Point","coordinates":[39.510523552359196,13.540810667672455,0,-1.7976931348623157e+308]},"properties":{"Name_First":"MEKELE","Latitude_F":13.5408106677,"Longitude_":39.5105235524,"New_EEP_Re":"North","Year_of_Op":"2007","NO_First":9,"Old_EEP_Re":"North","Poletical_":"Tigray","TYPE_First":"MOBILE, BAY","VOLTAGE_LE":230,"Voltage_Sp":"230/132/45/33/15","Work_Unit_":"TSO","ORIG_FID":88}},
{"type":"Feature","geometry":{"type":"Point","coordinates":[39.47095926399259,13.568654429552879,0,-1.7976931348623157e+308]},"properties":{"Name_First":"MESOBO","Latitude_F":13.5686544296,"Longitude_":39.470959264,"New_EEP_Re":"","Year_of_Op":"1999","NO_First":10,"Old_EEP_Re":"North","Poletical_":"Tigray","TYPE_First":"Industry","VOLTAGE_LE":132,"Voltage_Sp":"132/6","Work_Unit_":"Industry","ORIG_FID":89}},
{"type":"Feature","geometry":{"type":"Point","coordinates":[38.74599037672427,13.354224921522293,0,-1.7976931348623157e+308]},"properties":{"Name_First":"Tekeze","Latitude_F":13.3542249215,"Longitude_":38.7459903767,"New_EEP_Re":"","Year_of_Op":"2002","NO_First":12,"Old_EEP_Re":"North","Poletical_":"Tigray","TYPE_First":"SwitchYared","VOLTAGE_LE":230,"Voltage_Sp":"230/33/15/7.3","Work_Unit_":"GO","ORIG_FID":90}},
{"type":"Feature","geometry":{"type":"Point","coordinates":[39.604059805770554,13.779644507086326,0,-1.7976931348623157e+308]},"properties":{"Name_First":"WUKRO","Latitude_F":13.7796445071,"Longitude_":39.6040598058,"New_EEP_Re":"North","Year_of_Op":"1999","NO_First":14,"Old_EEP_Re":"North","Poletical_":"Tigray","TYPE_First":"GIS","VOLTAGE_LE":132,"Voltage_Sp":"132/33/15","Work_Unit_":"TSO","ORIG_FID":91}},
{"type":"Feature","geometry":{"type":"Point","coordinates":[38.9292443188978,11.690149327912042,0,-1.7976931348623157e+308]},"properties":{"Name_First":"GASHENA","Latitude_F":11.6901493279,"Longitude_":38.9292443189,"New_EEP_Re":"NER","Year_of_Op":"2010","NO_First":7,"Old_EEP_Re":"North East","Poletical_":"Amhara","TYPE_First":"SWITCHGEAR,MOBILE","VOLTAGE_LE":230,"Voltage_Sp":"230/33/15","Work_Unit_":"TSO","ORIG_FID":92}},
{"type":"Feature","geometry":{"type":"Point","coordinates":[39.723568352424905,11.079306549561382,0,-1.7976931348623157e+308]},"properties":{"Name_First":"COMBOLCHA I","Latitude_F":11.0793065496,"Longitude_":39.7235683524,"New_EEP_Re":"NER","Year_of_Op":"2013","NO_First":4,"Old_EEP_Re":"North East","Poletical_":"Amhara","TYPE_First":"","VOLTAGE_LE":132,"Voltage_Sp":"132/66/33/15","Work_Unit_":"TSO","ORIG_FID":93}},
{"type":"Feature","geometry":{"type":"Point","coordinates":[39.75488932324069,11.038067833844101,0,-1.7976931348623157e+308]},"properties":{"Name_First":"COMBOLCHA II","Latitude_F":11.0380678338,"Longitude_":39.7548893232,"New_EEP_Re":"NER","Year_of_Op":"2011","NO_First":5,"Old_EEP_Re":"North East","Poletical_":"Amhara","TYPE_First":"","VOLTAGE_LE":230,"Voltage_Sp":"230/132/33","Work_Unit_":"TSO","ORIG_FID":94}},
{"type":"Feature","geometry":{"type":"Point","coordinates":[43.05821897711661,11.560300142814803,0,-1.7976931348623157e+308]},"properties":{"Name_First":"Djibouti","Latitude_F":11.5603001428,"Longitude_":43.0582189771,"New_EEP_Re":"","Year_of_Op":"","NO_First":0,"Old_EEP_Re":"","Poletical_":"","TYPE_First":"","VOLTAGE_LE":0,"Voltage_Sp":"","Work_Unit_":"","ORIG_FID":95}},
{"type":"Feature","geometry":{"type":"Point","coordinates":[42.24153250273546,10.41830530876252,0,-1.7976931348623157e+308]},"properties":{"Name_First":"ADIGALA","Latitude_F":10.4183053088,"Longitude_":42.2415325027,"New_EEP_Re":"East 1","Year_of_Op":"2011","NO_First":1,"Old_EEP_Re":"East","Poletical_":"Somali","TYPE_First":"","VOLTAGE_LE":230,"Voltage_Sp":"230/33","Work_Unit_":"TSO","ORIG_FID":96}},
{"type":"Feature","geometry":{"type":"Point","coordinates":[41.85193637242327,9.794465445483889,0,-1.7976931348623157e+308]},"properties":{"Name_First":"LONNIS TS","Latitude_F":9.79446544548,"Longitude_":41.8519363724,"New_EEP_Re":"","Year_of_Op":"2017","NO_First":22,"Old_EEP_Re":"East","Poletical_":"Somali","TYPE_First":"Traction Substation","VOLTAGE_LE":230,"Voltage_Sp":"","Work_Unit_":"Railway","ORIG_FID":97}},
{"type":"Feature","geometry":{"type":"Point","coordinates":[41.87977950693664,9.598349138599902,0,-1.7976931348623157e+308]},"properties":{"Name_First":"DIRE DAWA II","Latitude_F":9.5983491386,"Longitude_":41.8797795069,"New_EEP_Re":"East 1","Year_of_Op":"1994","NO_First":10,"Old_EEP_Re":"East","Poletical_":"Dire Dawa","TYPE_First":"","VOLTAGE_LE":132,"Voltage_Sp":"132/15","Work_Unit_":"TSO","ORIG_FID":98}},
{"type":"Feature","geometry":{"type":"Point","coordinates":[42.09450480979892,9.32356007651041,0,-1.7976931348623157e+308]},"properties":{"Name_First":"HARAR III","Latitude_F":9.32356007651,"Longitude_":42.0945048098,"New_EEP_Re":"East 1","Year_of_Op":"2005","NO_First":17,"Old_EEP_Re":"East","Poletical_":"Harer","TYPE_First":"GIS","VOLTAGE_LE":132,"Voltage_Sp":"132/66/33/15","Work_Unit_":"TSO","ORIG_FID":99}},
{"type":"Feature","geometry":{"type":"Point","coordinates":[42.77273852770767,9.3497718992472,0,-1.7976931348623157e+308]},"properties":{"Name_First":"JIGJIGA I","Latitude_F":9.34977189925,"Longitude_":42.7727385277,"New_EEP_Re":"East2","Year_of_Op":"2005","NO_First":20,"Old_EEP_Re":"East","Poletical_":"Somali","TYPE_First":"","VOLTAGE_LE":132,"Voltage_Sp":"132/33/15","Work_Unit_":"TSO","ORIG_FID":100}},
{"type":"Feature","geometry":{"type":"Point","coordinates":[42.30711821956316,8.138651920586213,0,-1.7976931348623157e+308]},"properties":{"Name_First":"FIK","Latitude_F":8.13865192059,"Longitude_":42.3071182196,"New_EEP_Re":"East2","Year_of_Op":"2012","NO_First":14,"Old_EEP_Re":"East","Poletical_":"Somali","TYPE_First":"","VOLTAGE_LE":132,"Voltage_Sp":"132/33","Work_Unit_":"TSO","ORIG_FID":101}},
{"type":"Feature","geometry":{"type":"Point","coordinates":[38.7589389204075,8.976043359961354,0,-1.7976931348623157e+308]},"properties":{"Name_First":"NIFASSILK","Latitude_F":8.97604335996,"Longitude_":38.7589389204,"New_EEP_Re":"Central 3","Year_of_Op":"2016","NO_First":26,"Old_EEP_Re":"AAR","Poletical_":"Addis Abeba","TYPE_First":"","VOLTAGE_LE":132,"Voltage_Sp":"132/15","Work_Unit_":"TSO","ORIG_FID":102}},
{"type":"Feature","geometry":{"type":"Point","coordinates":[38.74572419585574,9.00938699232169,0,-1.7976931348623157e+308]},"properties":{"Name_First":"ADDIS CENTER","Latitude_F":9.00938699232,"Longitude_":38.7457241959,"New_EEP_Re":"Central 2","Year_of_Op":"1999","NO_First":1,"Old_EEP_Re":"AAR","Poletical_":"Addis Abeba","TYPE_First":"MOBILE","VOLTAGE_LE":132,"Voltage_Sp":"132/15","Work_Unit_":"TSO","ORIG_FID":103}},
{"type":"Feature","geometry":{"type":"Point","coordinates":[38.45544469218253,9.116069883956806,0,-1.7976931348623157e+308]},"properties":{"Name_First":"HABESHA CEMENT","Latitude_F":9.11606988396,"Longitude_":38.4554446922,"New_EEP_Re":"","Year_of_Op":"2018","NO_First":24,"Old_EEP_Re":"Central","Poletical_":"Oromiya","TYPE_First":"Industry","VOLTAGE_LE":132,"Voltage_Sp":"132/6.6","Work_Unit_":"Industry","ORIG_FID":104}},
{"type":"Feature","geometry":{"type":"Point","coordinates":[36.92019766679504,11.820342953161132,0,-1.7976931348623157e+308]},"properties":{"Name_First":"Beles","Latitude_F":11.8203429532,"Longitude_":36.9201976668,"New_EEP_Re":"","Year_of_Op":"2010","NO_First":3,"Old_EEP_Re":"North West","Poletical_":"Amhara","TYPE_First":"SwitchYared","VOLTAGE_LE":400,"Voltage_Sp":"15/400","Work_Unit_":"GO","ORIG_FID":105}},
{"type":"Feature","geometry":{"type":"Point","coordinates":[35.08378864999955,11.22621696618125,0,-1.7976931348623157e+308]},"properties":{"Name_First":"Grand Renaissance","Latitude_F":11.2262169662,"Longitude_":35.08378865,"New_EEP_Re":"","Year_of_Op":"2017","NO_First":10,"Old_EEP_Re":"West","Poletical_":"Benishangul","TYPE_First":"SwitchYared","VOLTAGE_LE":500,"Voltage_Sp":"500/400","Work_Unit_":"GO","ORIG_FID":106}},
{"type":"Feature","geometry":{"type":"Point","coordinates":[41.54965483453049,11.915863125854937,0,-1.7976931348623157e+308]},"properties":{"Name_First":"DICHETO","Latitude_F":11.9158631259,"Longitude_":41.5496548345,"New_EEP_Re":"NER","Year_of_Op":"","NO_First":6,"Old_EEP_Re":"North East","Poletical_":"Afar","TYPE_First":"GIS","VOLTAGE_LE":132,"Voltage_Sp":"230/33","Work_Unit_":"TSO","ORIG_FID":107}},
{"type":"Feature","geometry":{"type":"Point","coordinates":[39.49550911141008,14.235010722769568,0,-1.7976931348623157e+308]},"properties":{"Name_First":"ADIGRAT","Latitude_F":14.2350107228,"Longitude_":39.4955091114,"New_EEP_Re":"North","Year_of_Op":"1998","NO_First":2,"Old_EEP_Re":"North","Poletical_":"Tigray","TYPE_First":"","VOLTAGE_LE":132,"Voltage_Sp":"132/66/33/15","Work_Unit_":"TSO","ORIG_FID":108}},
{"type":"Feature","geometry":{"type":"Point","coordinates":[38.87328020240144,14.151954126155685,0,-1.7976931348623157e+308]},"properties":{"Name_First":"ADWA","Latitude_F":14.1519541262,"Longitude_":38.8732802024,"New_EEP_Re":"North","Year_of_Op":"2010","NO_First":3,"Old_EEP_Re":"North","Poletical_":"Tigray","TYPE_First":"","VOLTAGE_LE":132,"Voltage_Sp":"132/66/33/15","Work_Unit_":"TSO","ORIG_FID":109}},
{"type":"Feature","geometry":{"type":"Point","coordinates":[38.73547089370911,14.10776575769547,0,-1.7976931348623157e+308]},"properties":{"Name_First":"AXUM","Latitude_F":14.1077657577,"Longitude_":38.7354708937,"New_EEP_Re":"North","Year_of_Op":"2019","NO_First":6,"Old_EEP_Re":"North","Poletical_":"Tigray","TYPE_First":"GIS","VOLTAGE_LE":230,"Voltage_Sp":"230/132/15","Work_Unit_":"TSO","ORIG_FID":110}},
{"type":"Feature","geometry":{"type":"Point","coordinates":[38.92847349721175,8.769489173925493,0,-1.7976931348623157e+308]},"properties":{"Name_First":"EIZ","Latitude_F":8.76948917393,"Longitude_":38.9284734972,"New_EEP_Re":"","Year_of_Op":"2015","NO_First":13,"Old_EEP_Re":"AAR","Poletical_":"Addis Abeba","TYPE_First":"Industry","VOLTAGE_LE":230,"Voltage_Sp":"230/33","Work_Unit_":"Industry","ORIG_FID":111}},
{"type":"Feature","geometry":{"type":"Point","coordinates":[39.10101546403825,8.597388799162525,0,-1.7976931348623157e+308]},"properties":{"Name_First":"MOJO","Latitude_F":8.59738879916,"Longitude_":39.101015464,"New_EEP_Re":"Central 2","Year_of_Op":"","NO_First":33,"Old_EEP_Re":"Central","Poletical_":"Oromiya","TYPE_First":"MOBILE","VOLTAGE_LE":132,"Voltage_Sp":"","Work_Unit_":"TSO","ORIG_FID":112}},
{"type":"Feature","geometry":{"type":"Point","coordinates":[36.90020377865026,7.1895118754448895,0,-1.7976931348623157e+308]},"properties":{"Name_First":"ABA","Latitude_F":7.18951187544,"Longitude_":36.9002037787,"New_EEP_Re":"SWR","Year_of_Op":"2007","NO_First":1,"Old_EEP_Re":"South West","Poletical_":"Oromiya","TYPE_First":"MOBILE [132 INCOMING]","VOLTAGE_LE":132,"Voltage_Sp":"132/15","Work_Unit_":"TSO","ORIG_FID":113}},
{"type":"Feature","geometry":{"type":"Point","coordinates":[38.1693940581129,4.87116384245695,0,-1.7976931348623157e+308]},"properties":{"Name_First":"YABELO","Latitude_F":4.87116384246,"Longitude_":38.1693940581,"New_EEP_Re":"South 1","Year_of_Op":"2018","NO_First":19,"Old_EEP_Re":"South","Poletical_":"Oromiya","TYPE_First":"","VOLTAGE_LE":132,"Voltage_Sp":"132/33","Work_Unit_":"TSO","ORIG_FID":114}},
{"type":"Feature","geometry":{"type":"Point","coordinates":[39.2267117406152,9.271828765448824,0,-1.7976931348623157e+308]},"properties":{"Name_First":"SINO STEEL","Latitude_F":9.27182876545,"Longitude_":39.2267117406,"New_EEP_Re":"","Year_of_Op":"2018","NO_First":32,"Old_EEP_Re":"AAR","Poletical_":"Amhara","TYPE_First":"Industry","VOLTAGE_LE":230,"Voltage_Sp":"","Work_Unit_":"Industry","ORIG_FID":115}},
{"type":"Feature","geometry":{"type":"Point","coordinates":[38.773544680348074,9.306671038037232,0,-1.7976931348623157e+308]},"properties":{"Name_First":"CHANCHO","Latitude_F":9.30667103804,"Longitude_":38.7735446803,"New_EEP_Re":"Central 1","Year_of_Op":"2017","NO_First":13,"Old_EEP_Re":"Central","Poletical_":"Oromiya","TYPE_First":"","VOLTAGE_LE":230,"Voltage_Sp":"230/132/33","Work_Unit_":"TSO","ORIG_FID":116}},
{"type":"Feature","geometry":{"type":"Point","coordinates":[39.89943749578145,9.994220622430987,0,-1.7976931348623157e+308]},"properties":{"Name_First":"SHOA ROBIT","Latitude_F":9.99422062243,"Longitude_":39.8994374958,"New_EEP_Re":"NER","Year_of_Op":"1985","NO_First":10,"Old_EEP_Re":"North East","Poletical_":"Amhara","TYPE_First":"","VOLTAGE_LE":132,"Voltage_Sp":"132/33/15","Work_Unit_":"TSO","ORIG_FID":117}},
{"type":"Feature","geometry":{"type":"Point","coordinates":[38.39006184490464,6.749975840274963,0,-1.7976931348623157e+308]},"properties":{"Name_First":"YIRGALEM I","Latitude_F":6.74997584027,"Longitude_":38.3900618449,"New_EEP_Re":"South 1","Year_of_Op":"2006","NO_First":21,"Old_EEP_Re":"South","Poletical_":"South","TYPE_First":"GIS","VOLTAGE_LE":132,"Voltage_Sp":"132/33/15","Work_Unit_":"TSO","ORIG_FID":118}},
{"type":"Feature","geometry":{"type":"Point","coordinates":[38.50960261289639,7.035973996445648,0,-1.7976931348623157e+308]},"properties":{"Name_First":"HAWASA I","Latitude_F":7.03597399645,"Longitude_":38.5096026129,"New_EEP_Re":"South I","Year_of_Op":"2016","NO_First":8,"Old_EEP_Re":"South","Poletical_":"South","TYPE_First":"","VOLTAGE_LE":132,"Voltage_Sp":"132/33/15","Work_Unit_":"TSO","ORIG_FID":119}},
{"type":"Feature","geometry":{"type":"Point","coordinates":[38.514845791159175,7.062629953132359,0,-1.7976931348623157e+308]},"properties":{"Name_First":"HAWASA II","Latitude_F":7.06262995313,"Longitude_":38.5148457912,"New_EEP_Re":"South I","Year_of_Op":"2019","NO_First":9,"Old_EEP_Re":"South","Poletical_":"South","TYPE_First":"","VOLTAGE_LE":230,"Voltage_Sp":"230/132/33/15","Work_Unit_":"TSO","ORIG_FID":120}},
{"type":"Feature","geometry":{"type":"Point","coordinates":[38.52919617546443,8.863035924196238,0,-1.7976931348623157e+308]},"properties":{"Name_First":"Wuda","Latitude_F":8.8630359242,"Longitude_":38.5291961755,"New_EEP_Re":"","Year_of_Op":"2022","NO_First":0,"Old_EEP_Re":"AAR","Poletical_":"Oromiya","TYPE_First":"","VOLTAGE_LE":132,"Voltage_Sp":"","Work_Unit_":"Industry","ORIG_FID":121}},
{"type":"Feature","geometry":{"type":"Point","coordinates":[37.367959256745145,7.903237449956192,0,-1.7976931348623157e+308]},"properties":{"Name_First":"Gilgel Gibe I","Latitude_F":7.90323744996,"Longitude_":37.3679592567,"New_EEP_Re":"","Year_of_Op":"1996","NO_First":6,"Old_EEP_Re":"South West","Poletical_":"Oromiya","TYPE_First":"SwitchYared","VOLTAGE_LE":230,"Voltage_Sp":"230/132/33","Work_Unit_":"GO","ORIG_FID":122}},
{"type":"Feature","geometry":{"type":"Point","coordinates":[37.724294227411164,6.912219288788119,0,-1.7976931348623157e+308]},"properties":{"Name_First":"WOLAYTA II","Latitude_F":6.91221928879,"Longitude_":37.7242942274,"New_EEP_Re":"South 2","Year_of_Op":"2016","NO_First":18,"Old_EEP_Re":"South","Poletical_":"South","TYPE_First":"","VOLTAGE_LE":400,"Voltage_Sp":"400/500","Work_Unit_":"TSO","ORIG_FID":123}},
{"type":"Feature","geometry":{"type":"Point","coordinates":[37.721938306764194,6.907400931895243,0,-1.7976931348623157e+308]},"properties":{"Name_First":"WOLAYAT III [CONVERTER STATION]","Latitude_F":6.9074009319,"Longitude_":37.7219383068,"New_EEP_Re":"South 2","Year_of_Op":"2022","NO_First":16,"Old_EEP_Re":"South","Poletical_":"South","TYPE_First":"DC","VOLTAGE_LE":500,"Voltage_Sp":"","Work_Unit_":"TSO","ORIG_FID":124}},
{"type":"Feature","geometry":{"type":"Point","coordinates":[37.770574014730876,6.856464624456816,0,-1.7976931348623157e+308]},"properties":{"Name_First":"WOLAYTA I","Latitude_F":6.85646462446,"Longitude_":37.7705740147,"New_EEP_Re":"South 2","Year_of_Op":"2013","NO_First":17,"Old_EEP_Re":"South","Poletical_":"South","TYPE_First":"MOBILE","VOLTAGE_LE":132,"Voltage_Sp":"132/66/33/15","Work_Unit_":"TSO","ORIG_FID":125}},
{"type":"Feature","geometry":{"type":"Point","coordinates":[38.701853392772655,9.066830052966946,0,-1.7976931348623157e+308]},"properties":{"Name_First":"SHEGOLE","Latitude_F":9.06683005297,"Longitude_":38.7018533928,"New_EEP_Re":"Central 1","Year_of_Op":"2019","NO_First":31,"Old_EEP_Re":"AAR","Poletical_":"Addis Abeba","TYPE_First":"","VOLTAGE_LE":230,"Voltage_Sp":"230/132/15","Work_Unit_":"TSO","ORIG_FID":126}},
{"type":"Feature","geometry":{"type":"Point","coordinates":[38.341896734610714,9.417657098588982,0,-1.7976931348623157e+308]},"properties":{"Name_First":"DANGOTE","Latitude_F":9.41765709859,"Longitude_":38.3418967346,"New_EEP_Re":"","Year_of_Op":"2016","NO_First":14,"Old_EEP_Re":"Central","Poletical_":"Oromiya","TYPE_First":"Industry","VOLTAGE_LE":132,"Voltage_Sp":"132/11.5","Work_Unit_":"Industry","ORIG_FID":127}},
{"type":"Feature","geometry":{"type":"Point","coordinates":[37.74187447381337,9.032396375002525,0,-1.7976931348623157e+308]},"properties":{"Name_First":"HORMAT [GUDER]","Latitude_F":9.032396375,"Longitude_":37.7418744738,"New_EEP_Re":"Central 1","Year_of_Op":"1991","NO_First":26,"Old_EEP_Re":"Central","Poletical_":"Oromiya","TYPE_First":"GIS","VOLTAGE_LE":132,"Voltage_Sp":"132/33/15","Work_Unit_":"TSO","ORIG_FID":128}},
{"type":"Feature","geometry":{"type":"Point","coordinates":[35.85255967966023,9.164144832180693,0,-1.7976931348623157e+308]},"properties":{"Name_First":"GIMBI","Latitude_F":9.16414483218,"Longitude_":35.8525596797,"New_EEP_Re":"West","Year_of_Op":"2001","NO_First":9,"Old_EEP_Re":"West","Poletical_":"Oromiya","TYPE_First":"","VOLTAGE_LE":132,"Voltage_Sp":"132/33/15","Work_Unit_":"TSO","ORIG_FID":129}},
{"type":"Feature","geometry":{"type":"Point","coordinates":[40.856444301443766,9.109960908649285,0,-1.7976931348623157e+308]},"properties":{"Name_First":"ASEBE TEFERI II","Latitude_F":9.10996090865,"Longitude_":40.8564443014,"New_EEP_Re":"East 1","Year_of_Op":"2000","NO_First":4,"Old_EEP_Re":"East","Poletical_":"Oromiya","TYPE_First":"GIS","VOLTAGE_LE":132,"Voltage_Sp":"132/66/33/15","Work_Unit_":"TSO","ORIG_FID":130}},
{"type":"Feature","geometry":{"type":"Point","coordinates":[38.78194682958741,9.045013441404048,0,-1.7976931348623157e+308]},"properties":{"Name_First":"ADDIS EAST II","Latitude_F":9.0450134414,"Longitude_":38.7819468296,"New_EEP_Re":"Central 1","Year_of_Op":"2005","NO_First":3,"Old_EEP_Re":"AAR","Poletical_":"Addis Abeba","TYPE_First":"","VOLTAGE_LE":132,"Voltage_Sp":"132/15","Work_Unit_":"TSO","ORIG_FID":131}},
{"type":"Feature","geometry":{"type":"Point","coordinates":[44.28526260832277,6.713664691790289,0,-1.7976931348623157e+308]},"properties":{"Name_First":"KEBRIDEHAR","Latitude_F":6.71366469179,"Longitude_":44.2852626083,"New_EEP_Re":"East2","Year_of_Op":"2020","NO_First":21,"Old_EEP_Re":"East","Poletical_":"Somali","TYPE_First":"GIS","VOLTAGE_LE":132,"Voltage_Sp":"","Work_Unit_":"TSO","ORIG_FID":132}},
{"type":"Feature","geometry":{"type":"Point","coordinates":[43.56046687276712,8.237508411534362,0,-1.7976931348623157e+308]},"properties":{"Name_First":"DEGAHABOUR","Latitude_F":8.23750841153,"Longitude_":43.5604668728,"New_EEP_Re":"East2","Year_of_Op":"2020","NO_First":8,"Old_EEP_Re":"East","Poletical_":"Somali","TYPE_First":"GIS","VOLTAGE_LE":132,"Voltage_Sp":"132/33","Work_Unit_":"TSO","ORIG_FID":133}},
{"type":"Feature","geometry":{"type":"Point","coordinates":[41.13365340526282,6.896706187163686,0,-1.7976931348623157e+308]},"properties":{"Name_First":"RAYTU [RAMO]","Latitude_F":6.89670618716,"Longitude_":41.1336534053,"New_EEP_Re":"South 1","Year_of_Op":"2016","NO_First":12,"Old_EEP_Re":"South","Poletical_":"Oromiya","TYPE_First":"","VOLTAGE_LE":230,"Voltage_Sp":"230/132/33","Work_Unit_":"TSO","ORIG_FID":134}},
{"type":"Feature","geometry":{"type":"Point","coordinates":[39.457987920092805,7.173394926625333,0,-1.7976931348623157e+308]},"properties":{"Name_First":"MELKA WAKENA YUGO","Latitude_F":7.17339492663,"Longitude_":39.4579879201,"New_EEP_Re":"","Year_of_Op":"1986","NO_First":30,"Old_EEP_Re":"Central","Poletical_":"Oromiya","TYPE_First":"","VOLTAGE_LE":230,"Voltage_Sp":"230/132/66/33/15","Work_Unit_":"GO","ORIG_FID":135}},
{"type":"Feature","geometry":{"type":"Point","coordinates":[39.85916043541478,6.415141730162105,0,-1.7976931348623157e+308]},"properties":{"Name_First":"YADOT","Latitude_F":6.41514173016,"Longitude_":39.8591604354,"New_EEP_Re":"South 1","Year_of_Op":"2013","NO_First":20,"Old_EEP_Re":"South","Poletical_":"Oromiya","TYPE_First":"","VOLTAGE_LE":132,"Voltage_Sp":"132/33/15","Work_Unit_":"TSO","ORIG_FID":136}},
{"type":"Feature","geometry":{"type":"Point","coordinates":[37.56329801928552,6.037225037906355,0,-1.7976931348623157e+308]},"properties":{"Name_First":"ARBA MINCH","Latitude_F":6.03722503791,"Longitude_":37.5632980193,"New_EEP_Re":"South 2","Year_of_Op":"2006","NO_First":1,"Old_EEP_Re":"South","Poletical_":"South","TYPE_First":"","VOLTAGE_LE":132,"Voltage_Sp":"132/33/15","Work_Unit_":"TSO","ORIG_FID":137}},
{"type":"Feature","geometry":{"type":"Point","coordinates":[38.97184735776261,13.63778095543668,0,-1.7976931348623157e+308]},"properties":{"Name_First":"ABI ADI","Latitude_F":13.6377809554,"Longitude_":38.9718473578,"New_EEP_Re":"North","Year_of_Op":"","NO_First":1,"Old_EEP_Re":"North","Poletical_":"Tigray","TYPE_First":"MOBILE","VOLTAGE_LE":132,"Voltage_Sp":"132/33/15","Work_Unit_":"TSO","ORIG_FID":138}},
{"type":"Feature","geometry":{"type":"Point","coordinates":[38.78586170610234,9.020475889905859,0,-1.7976931348623157e+308]},"properties":{"Name_First":"ADDIS EAST","Latitude_F":9.02047588991,"Longitude_":38.7858617061,"New_EEP_Re":"Central 1","Year_of_Op":"2017","NO_First":2,"Old_EEP_Re":"AAR","Poletical_":"Addis Abeba","TYPE_First":"","VOLTAGE_LE":132,"Voltage_Sp":"132/15","Work_Unit_":"TSO","ORIG_FID":139}},
{"type":"Feature","geometry":{"type":"Point","coordinates":[38.74734308658518,9.058059656282426,0,-1.7976931348623157e+308]},"properties":{"Name_First":"ADDIS NORTH","Latitude_F":9.05805965628,"Longitude_":38.7473430866,"New_EEP_Re":"Central 1","Year_of_Op":"1984","NO_First":4,"Old_EEP_Re":"AAR","Poletical_":"Addis Abeba","TYPE_First":"","VOLTAGE_LE":132,"Voltage_Sp":"132/15","Work_Unit_":"TSO","ORIG_FID":140}},
{"type":"Feature","geometry":{"type":"Point","coordinates":[36.59897208492362,7.849505175058442,0,-1.7976931348623157e+308]},"properties":{"Name_First":"AGARO","Latitude_F":7.84950517506,"Longitude_":36.5989720849,"New_EEP_Re":"SWR","Year_of_Op":"1989","NO_First":2,"Old_EEP_Re":"South West","Poletical_":"Oromiya","TYPE_First":"","VOLTAGE_LE":230,"Voltage_Sp":"230/132/33/15","Work_Unit_":"TSO","ORIG_FID":141}},
{"type":"Feature","geometry":{"type":"Point","coordinates":[38.97687363726031,10.062376113225858,0,-1.7976931348623157e+308]},"properties":{"Name_First":"ALEM KETEMA","Latitude_F":10.0623761132,"Longitude_":38.9768736373,"New_EEP_Re":"NER","Year_of_Op":"2012","NO_First":3,"Old_EEP_Re":"North East","Poletical_":"Amhara","TYPE_First":"","VOLTAGE_LE":132,"Voltage_Sp":"132/33","Work_Unit_":"TSO","ORIG_FID":142}},
{"type":"Feature","geometry":{"type":"Point","coordinates":[38.71307581524377,9.029712075301138,0,-1.7976931348623157e+308]},"properties":{"Name_First":"ADDIS WEST","Latitude_F":9.0297120753,"Longitude_":38.7130758152,"New_EEP_Re":"Central 3","Year_of_Op":"2017","NO_First":6,"Old_EEP_Re":"AAR","Poletical_":"Addis Abeba","TYPE_First":"","VOLTAGE_LE":132,"Voltage_Sp":"132/15","Work_Unit_":"TSO","ORIG_FID":143}},
{"type":"Feature","geometry":{"type":"Point","coordinates":[38.6755254858113,9.022374162203695,0,-1.7976931348623157e+308]},"properties":{"Name_First":"ANFOMEDA","Latitude_F":9.0223741622,"Longitude_":38.6755254858,"New_EEP_Re":"Central 3","Year_of_Op":"2016","NO_First":7,"Old_EEP_Re":"AAR","Poletical_":"Addis Abeba","TYPE_First":"GIS","VOLTAGE_LE":230,"Voltage_Sp":"230/15","Work_Unit_":"TSO","ORIG_FID":144}},
{"type":"Feature","geometry":{"type":"Point","coordinates":[42.52006453166027,10.7197439082687,0,-1.7976931348623157e+308]},"properties":{"Name_First":"AYISHA TS","Latitude_F":10.7197439083,"Longitude_":42.5200645317,"New_EEP_Re":"","Year_of_Op":"2017","NO_First":6,"Old_EEP_Re":"East","Poletical_":"Somali","TYPE_First":"Traction Substation","VOLTAGE_LE":132,"Voltage_Sp":"","Work_Unit_":"Railway","ORIG_FID":145}},
{"type":"Feature","geometry":{"type":"Point","coordinates":[37.06068231171511,9.108726251096968,0,-1.7976931348623157e+308]},"properties":{"Name_First":"BAKO","Latitude_F":9.1087262511,"Longitude_":37.0606823117,"New_EEP_Re":"West","Year_of_Op":"2021","NO_First":2,"Old_EEP_Re":"West","Poletical_":"Oromiya","TYPE_First":"GIS","VOLTAGE_LE":132,"Voltage_Sp":"132/33/15","Work_Unit_":"TSO","ORIG_FID":146}},
{"type":"Feature","geometry":{"type":"Point","coordinates":[38.8620818537147,8.975407638047916,0,-1.7976931348623157e+308]},"properties":{"Name_First":"BOLE LEMI I","Latitude_F":8.97540763805,"Longitude_":38.8620818537,"New_EEP_Re":"Central 1","Year_of_Op":"2021","NO_First":9,"Old_EEP_Re":"AAR","Poletical_":"Addis Abeba","TYPE_First":"MOBILE","VOLTAGE_LE":132,"Voltage_Sp":"132/33","Work_Unit_":"TSO","ORIG_FID":147}},
{"type":"Feature","geometry":{"type":"Point","coordinates":[38.54582887118505,8.312423910089722,0,-1.7976931348623157e+308]},"properties":{"Name_First":"BUEI","Latitude_F":8.31242391009,"Longitude_":38.5458288712,"New_EEP_Re":"Central 3","Year_of_Op":"2021","NO_First":11,"Old_EEP_Re":"Central","Poletical_":"Oromiya","TYPE_First":"","VOLTAGE_LE":132,"Voltage_Sp":"132/33/15","Work_Unit_":"TSO","ORIG_FID":148}},
{"type":"Feature","geometry":{"type":"Point","coordinates":[42.63536481020445,11.061847817955377,0,-1.7976931348623157e+308]},"properties":{"Name_First":"DAWANLE","Latitude_F":11.061847818,"Longitude_":42.6353648102,"New_EEP_Re":"","Year_of_Op":"2017","NO_First":7,"Old_EEP_Re":"East","Poletical_":"Somali","TYPE_First":"Traction Substation","VOLTAGE_LE":230,"Voltage_Sp":"","Work_Unit_":"Railway","ORIG_FID":149}},
{"type":"Feature","geometry":{"type":"Point","coordinates":[41.854920847493766,9.58278948044013,0,-1.7976931348623157e+308]},"properties":{"Name_First":"DIRE DAWA I","Latitude_F":9.58278948044,"Longitude_":41.8549208475,"New_EEP_Re":"East 1","Year_of_Op":"2016","NO_First":9,"Old_EEP_Re":"East","Poletical_":"Dire Dawa","TYPE_First":"","VOLTAGE_LE":132,"Voltage_Sp":"132/15","Work_Unit_":"TSO","ORIG_FID":150}},
{"type":"Feature","geometry":{"type":"Point","coordinates":[41.80393246694471,9.626787779370204,0,-1.7976931348623157e+308]},"properties":{"Name_First":"DIRE DAWA IV","Latitude_F":9.62678777937,"Longitude_":41.8039324669,"New_EEP_Re":"East 1","Year_of_Op":"2023","NO_First":12,"Old_EEP_Re":"East","Poletical_":"Dire Dawa","TYPE_First":"","VOLTAGE_LE":132,"Voltage_Sp":"","Work_Unit_":"TSO","ORIG_FID":151}},
{"type":"Feature","geometry":{"type":"Point","coordinates":[41.8590205354937,9.568709335773045,0,-1.7976931348623157e+308]},"properties":{"Name_First":"DIRE DAWA NATIONAL CEMENT","Latitude_F":9.56870933577,"Longitude_":41.8590205355,"New_EEP_Re":"East 1","Year_of_Op":"1997","NO_First":13,"Old_EEP_Re":"East","Poletical_":"Dire Dawa","TYPE_First":"Industry","VOLTAGE_LE":132,"Voltage_Sp":"132/6","Work_Unit_":"Industry","ORIG_FID":152}},
{"type":"Feature","geometry":{"type":"Point","coordinates":[39.77487535424273,5.5214661377292,0,-1.7976931348623157e+308]},"properties":{"Name_First":"Genale Dawa III","Latitude_F":5.52146613773,"Longitude_":39.7748753542,"New_EEP_Re":"","Year_of_Op":"2019","NO_First":4,"Old_EEP_Re":"South","Poletical_":"Oromiya","TYPE_First":"SwitchYared","VOLTAGE_LE":400,"Voltage_Sp":"13.8/400","Work_Unit_":"GO","ORIG_FID":153}},
{"type":"Feature","geometry":{"type":"Point","coordinates":[38.86815010974821,9.026414065358175,0,-1.7976931348623157e+308]},"properties":{"Name_First":"AYAT","Latitude_F":9.02641406536,"Longitude_":38.8681501097,"New_EEP_Re":"Central 1","Year_of_Op":"2016","NO_First":8,"Old_EEP_Re":"AAR","Poletical_":"Addis Abeba","TYPE_First":"GIS","VOLTAGE_LE":132,"Voltage_Sp":"132/15","Work_Unit_":"TSO","ORIG_FID":154}},
{"type":"Feature","geometry":{"type":"Point","coordinates":[34.599440705974004,8.990641705466938,0,-1.7976931348623157e+308]},"properties":{"Name_First":"GIDAMI","Latitude_F":8.99064170547,"Longitude_":34.599440706,"New_EEP_Re":"West","Year_of_Op":"2018","NO_First":7,"Old_EEP_Re":"West","Poletical_":"Oromiya","TYPE_First":"","VOLTAGE_LE":132,"Voltage_Sp":"132/33","Work_Unit_":"TSO","ORIG_FID":155}},
{"type":"Feature","geometry":{"type":"Point","coordinates":[36.633133773857715,9.858366406711216,0,-1.7976931348623157e+308]},"properties":{"Name_First":"GIDAYANA","Latitude_F":9.85836640671,"Longitude_":36.6331337739,"New_EEP_Re":"West","Year_of_Op":"2011","NO_First":8,"Old_EEP_Re":"West","Poletical_":"Oromiya","TYPE_First":"","VOLTAGE_LE":132,"Voltage_Sp":"132/33","Work_Unit_":"TSO","ORIG_FID":156}},
{"type":"Feature","geometry":{"type":"Point","coordinates":[38.142637974683446,9.004354265278865,0,-1.7976931348623157e+308]},"properties":{"Name_First":"GINCHI","Latitude_F":9.00435426528,"Longitude_":38.1426379747,"New_EEP_Re":"Central 1","Year_of_Op":"2021","NO_First":22,"Old_EEP_Re":"Central","Poletical_":"Oromiya","TYPE_First":"","VOLTAGE_LE":230,"Voltage_Sp":"","Work_Unit_":"TSO","ORIG_FID":157}},
{"type":"Feature","geometry":{"type":"Point","coordinates":[41.302537044817406,9.51077227778207,0,-1.7976931348623157e+308]},"properties":{"Name_First":"GOTA","Latitude_F":9.51077227778,"Longitude_":41.3025370448,"New_EEP_Re":"","Year_of_Op":"2017","NO_First":16,"Old_EEP_Re":"East","Poletical_":"Somali","TYPE_First":"Traction Substation","VOLTAGE_LE":132,"Voltage_Sp":"","Work_Unit_":"Railway","ORIG_FID":158}},
{"type":"Feature","geometry":{"type":"Point","coordinates":[38.771692462528264,8.892545461835578,0,-1.7976931348623157e+308]},"properties":{"Name_First":"KALITI NORTH","Latitude_F":8.89254546184,"Longitude_":38.7716924625,"New_EEP_Re":"Central 2","Year_of_Op":"2015","NO_First":19,"Old_EEP_Re":"AAR","Poletical_":"Addis Abeba","TYPE_First":"","VOLTAGE_LE":132,"Voltage_Sp":"132/15","Work_Unit_":"TSO","ORIG_FID":159}},
{"type":"Feature","geometry":{"type":"Point","coordinates":[39.88511327465574,10.717388243117599,0,-1.7976931348623157e+308]},"properties":{"Name_First":"KEMISIE","Latitude_F":10.7173882431,"Longitude_":39.8851132747,"New_EEP_Re":"NER","Year_of_Op":"2016","NO_First":8,"Old_EEP_Re":"North East","Poletical_":"Amhara","TYPE_First":"","VOLTAGE_LE":132,"Voltage_Sp":"132/33/15","Work_Unit_":"TSO","ORIG_FID":160}},
{"type":"Feature","geometry":{"type":"Point","coordinates":[39.45977854456294,7.217868220186965,0,-1.7976931348623157e+308]},"properties":{"Name_First":"Melka Wakena","Latitude_F":7.21786822019,"Longitude_":39.4597785446,"New_EEP_Re":"","Year_of_Op":"1986","NO_First":29,"Old_EEP_Re":"Central","Poletical_":"Oromiya","TYPE_First":"SwitchYared","VOLTAGE_LE":230,"Voltage_Sp":"13.8/230","Work_Unit_":"GO","ORIG_FID":161}},
{"type":"Feature","geometry":{"type":"Point","coordinates":[42.010018425563246,10.135014418735755,0,-1.7976931348623157e+308]},"properties":{"Name_First":"MILO TS","Latitude_F":10.1350144187,"Longitude_":42.0100184256,"New_EEP_Re":"","Year_of_Op":"2017","NO_First":25,"Old_EEP_Re":"East","Poletical_":"Somali","TYPE_First":"Traction Substation","VOLTAGE_LE":230,"Voltage_Sp":"","Work_Unit_":"Railway","ORIG_FID":162}},
{"type":"Feature","geometry":{"type":"Point","coordinates":[38.74185307210262,9.069674513284227,0,-1.7976931348623157e+308]},"properties":{"Name_First":"MINILIK NEW","Latitude_F":9.06967451328,"Longitude_":38.7418530721,"New_EEP_Re":"Central 1","Year_of_Op":"2016","NO_First":25,"Old_EEP_Re":"AAR","Poletical_":"Addis Abeba","TYPE_First":"GIS","VOLTAGE_LE":132,"Voltage_Sp":"132/15","Work_Unit_":"TSO","ORIG_FID":163}},
{"type":"Feature","geometry":{"type":"Point","coordinates":[38.75855734185853,8.928915906269289,0,-1.7976931348623157e+308]},"properties":{"Name_First":"KALITI NEW","Latitude_F":8.92891590627,"Longitude_":38.7585573419,"New_EEP_Re":"Central 3","Year_of_Op":"2016","NO_First":18,"Old_EEP_Re":"AAR","Poletical_":"Addis Abeba","TYPE_First":"GIS","VOLTAGE_LE":132,"Voltage_Sp":"132/15","Work_Unit_":"TSO","ORIG_FID":164}},
{"type":"Feature","geometry":{"type":"Point","coordinates":[38.70918545742683,8.974917840865343,0,-1.7976931348623157e+308]},"properties":{"Name_First":"Reppie EFW","Latitude_F":8.97491784087,"Longitude_":38.7091854574,"New_EEP_Re":"","Year_of_Op":"2018","NO_First":28,"Old_EEP_Re":"AAR","Poletical_":"Addis Abeba","TYPE_First":"SwitchYared","VOLTAGE_LE":132,"Voltage_Sp":"10.5/132","Work_Unit_":"GO","ORIG_FID":165}},
{"type":"Feature","geometry":{"type":"Point","coordinates":[38.58037496720623,8.899310871100075,0,-1.7976931348623157e+308]},"properties":{"Name_First":"SEBETA TS","Latitude_F":8.8993108711,"Longitude_":38.5803749672,"New_EEP_Re":"","Year_of_Op":"2016","NO_First":39,"Old_EEP_Re":"AAR","Poletical_":"Oromiya","TYPE_First":"Traction Substation","VOLTAGE_LE":230,"Voltage_Sp":"230/33","Work_Unit_":"Railway","ORIG_FID":166}},
{"type":"Feature","geometry":{"type":"Point","coordinates":[40.425200953959894,9.048962620643096,0,-1.7976931348623157e+308]},"properties":{"Name_First":"SIRBA ONKUR","Latitude_F":9.04896262064,"Longitude_":40.425200954,"New_EEP_Re":"","Year_of_Op":"2017","NO_First":26,"Old_EEP_Re":"East","Poletical_":"Somali","TYPE_First":"Traction Substation","VOLTAGE_LE":132,"Voltage_Sp":"132/33","Work_Unit_":"Railway","ORIG_FID":167}},
{"type":"Feature","geometry":{"type":"Point","coordinates":[38.745111529129666,9.012180757787528,0,-1.7976931348623157e+308]},"properties":{"Name_First":"TIKUR ANBESA","Latitude_F":9.01218075779,"Longitude_":38.7451115291,"New_EEP_Re":"Central 3","Year_of_Op":"2018","NO_First":34,"Old_EEP_Re":"AAR","Poletical_":"Addis Abeba","TYPE_First":"GIS","VOLTAGE_LE":132,"Voltage_Sp":"132/15","Work_Unit_":"TSO","ORIG_FID":168}},
{"type":"Feature","geometry":{"type":"Point","coordinates":[39.206963205775374,9.25696608009284,0,-1.7976931348623157e+308]},"properties":{"Name_First":"TULEFA","Latitude_F":9.25696608009,"Longitude_":39.2069632058,"New_EEP_Re":"Central 1","Year_of_Op":"","NO_First":38,"Old_EEP_Re":"Central","Poletical_":"Amhara","TYPE_First":"","VOLTAGE_LE":132,"Voltage_Sp":"","Work_Unit_":"TSO","ORIG_FID":169}},
{"type":"Feature","geometry":{"type":"Point","coordinates":[38.21056010542518,7.884497739683088,0,-1.7976931348623157e+308]},"properties":{"Name_First":"Werabe","Latitude_F":7.88449773968,"Longitude_":38.2105601054,"New_EEP_Re":"Central 3","Year_of_Op":"2023","NO_First":0,"Old_EEP_Re":"Central","Poletical_":"South","TYPE_First":"","VOLTAGE_LE":132,"Voltage_Sp":"","Work_Unit_":"TSO","ORIG_FID":170}},
{"type":"Feature","geometry":{"type":"Point","coordinates":[38.80964166920662,9.004562315100904,0,-1.7976931348623157e+308]},"properties":{"Name_First":"WEREGENU","Latitude_F":9.0045623151,"Longitude_":38.8096416692,"New_EEP_Re":"Central 1","Year_of_Op":"1984","NO_First":35,"Old_EEP_Re":"AAR","Poletical_":"Addis Abeba","TYPE_First":"","VOLTAGE_LE":132,"Voltage_Sp":"132/15","Work_Unit_":"TSO","ORIG_FID":171}},
{"type":"Feature","geometry":{"type":"Point","coordinates":[39.56712921307437,11.800452788315317,0,-1.7976931348623157e+308]},"properties":{"Name_First":"WOLDIYA","Latitude_F":11.8004527883,"Longitude_":39.5671292131,"New_EEP_Re":"NER","Year_of_Op":"","NO_First":11,"Old_EEP_Re":"North East","Poletical_":"Amhara","TYPE_First":"MOBILE","VOLTAGE_LE":132,"Voltage_Sp":"","Work_Unit_":"TSO","ORIG_FID":172}},
{"type":"Feature","geometry":{"type":"Point","coordinates":[39.395594640416356,8.637331228574775,0,-1.7976931348623157e+308]},"properties":{"Name_First":"WOLENCHITI","Latitude_F":8.63733122857,"Longitude_":39.3955946404,"New_EEP_Re":"","Year_of_Op":"2017","NO_First":39,"Old_EEP_Re":"Central","Poletical_":"Oromiya","TYPE_First":"Traction Substation","VOLTAGE_LE":132,"Voltage_Sp":"132/33","Work_Unit_":"Railway","ORIG_FID":173}},
{"type":"Feature","geometry":{"type":"Point","coordinates":[39.21958751561841,8.461095548979344,0,-1.7976931348623157e+308]},"properties":{"Name_First":"WONJI","Latitude_F":8.46109554898,"Longitude_":39.2195875156,"New_EEP_Re":"Central 2","Year_of_Op":"1999","NO_First":41,"Old_EEP_Re":"Central","Poletical_":"Oromiya","TYPE_First":"","VOLTAGE_LE":132,"Voltage_Sp":"132/15","Work_Unit_":"TSO","ORIG_FID":174}},
{"type":"Feature","geometry":{"type":"Point","coordinates":[39.31057639043415,8.377969313997644,0,-1.7976931348623157e+308]},"properties":{"Name_First":"WONJI SUGAR II","Latitude_F":8.377969314,"Longitude_":39.3105763904,"New_EEP_Re":"","Year_of_Op":"","NO_First":42,"Old_EEP_Re":"Central","Poletical_":"Tigray","TYPE_First":"Industry","VOLTAGE_LE":132,"Voltage_Sp":"15/132 or 132/15","Work_Unit_":"Industry","ORIG_FID":175}},
{"type":"Feature","geometry":{"type":"Point","coordinates":[42.17639485420832,10.47684364494765,0,-1.7976931348623157e+308]},"properties":{"Name_First":"ADIGALA TS","Latitude_F":10.4768436449,"Longitude_":42.1763948542,"New_EEP_Re":"","Year_of_Op":"2017","NO_First":2,"Old_EEP_Re":"East","Poletical_":"Somali","TYPE_First":"Traction Substation","VOLTAGE_LE":230,"Voltage_Sp":"","Work_Unit_":"Railway","ORIG_FID":176}},
{"type":"Feature","geometry":{"type":"Point","coordinates":[40.84208320563947,13.22768891514238,0,-1.7976931348623157e+308]},"properties":{"Name_First":"AFDERA","Latitude_F":13.2276889151,"Longitude_":40.8420832056,"New_EEP_Re":"NER","Year_of_Op":"2022","NO_First":1,"Old_EEP_Re":"North East","Poletical_":"Afar","TYPE_First":"","VOLTAGE_LE":230,"Voltage_Sp":"","Work_Unit_":"TSO","ORIG_FID":177}},
{"type":"Feature","geometry":{"type":"Point","coordinates":[35.4842765303238,9.501870305926047,0,-1.7976931348623157e+308]},"properties":{"Name_First":"NEDJO","Latitude_F":9.50187030593,"Longitude_":35.4842765303,"New_EEP_Re":"West","Year_of_Op":"2021","NO_First":12,"Old_EEP_Re":"West","Poletical_":"Oromiya","TYPE_First":"","VOLTAGE_LE":132,"Voltage_Sp":"","Work_Unit_":"TSO","ORIG_FID":178}},
{"type":"Feature","geometry":{"type":"Point","coordinates":[37.13412944514303,9.569445311245627,0,-1.7976931348623157e+308]},"properties":{"Name_First":"SHAMBU","Latitude_F":9.56944531125,"Longitude_":37.1341294451,"New_EEP_Re":"West","Year_of_Op":"2022","NO_First":15,"Old_EEP_Re":"West","Poletical_":"Oromiya","TYPE_First":"","VOLTAGE_LE":230,"Voltage_Sp":"","Work_Unit_":"TSO","ORIG_FID":179}},
{"type":"Feature","geometry":{"type":"Point","coordinates":[38.81163144615951,8.98738651758083,0,-1.7976931348623157e+308]},"properties":{"Name_First":"Airport","Latitude_F":8.97755069035,"Longitude_":38.7802299085,"New_EEP_Re":"","Year_of_Op":"2024","NO_First":0,"Old_EEP_Re":"Addis Abeba","Poletical_":"Addis Abeba","TYPE_First":"","VOLTAGE_LE":132,"Voltage_Sp":"","Work_Unit_":"Industry","ORIG_FID":180}},
{"type":"Feature","geometry":{"type":"Point","coordinates":[36.448682702153256,11.561437465239909,0,-1.7976931348623157e+308]},"properties":{"Name_First":"JAWI","Latitude_F":11.5614374652,"Longitude_":36.4486827022,"New_EEP_Re":"Northwest","Year_of_Op":"","NO_First":6,"Old_EEP_Re":"North West","Poletical_":"Amhara","TYPE_First":"","VOLTAGE_LE":132,"Voltage_Sp":"","Work_Unit_":"TSO","ORIG_FID":181}},
{"type":"Feature","geometry":{"type":"Point","coordinates":[37.572195302419736,13.82422388498857,0,-1.7976931348623157e+308]},"properties":{"Name_First":"WOLKAYIT","Latitude_F":13.824223885,"Longitude_":37.5721953024,"New_EEP_Re":"North","Year_of_Op":"2019","NO_First":13,"Old_EEP_Re":"North","Poletical_":"Tigray","TYPE_First":"","VOLTAGE_LE":230,"Voltage_Sp":"","Work_Unit_":"TSO","ORIG_FID":182}},
{"type":"Feature","geometry":{"type":"Point","coordinates":[41.00895126642489,9.475789426248152,0,-1.7976931348623157e+308]},"properties":{"Name_First":"AFDEM","Latitude_F":9.47578942625,"Longitude_":41.0089512664,"New_EEP_Re":"","Year_of_Op":"2017","NO_First":3,"Old_EEP_Re":"East","Poletical_":"Somali","TYPE_First":"Traction Substation","VOLTAGE_LE":132,"Voltage_Sp":"","Work_Unit_":"Railway","ORIG_FID":183}},
{"type":"Feature","geometry":{"type":"Point","coordinates":[42.57722737415304,10.713166218440058,0,-1.7976931348623157e+308]},"properties":{"Name_First":"Ayisha II","Latitude_F":10.7131662184,"Longitude_":42.5772273742,"New_EEP_Re":"","Year_of_Op":"2022","NO_First":5,"Old_EEP_Re":"East","Poletical_":"Somali","TYPE_First":"SwitchYared","VOLTAGE_LE":230,"Voltage_Sp":"","Work_Unit_":"GO","ORIG_FID":184}},
{"type":"Feature","geometry":{"type":"Point","coordinates":[39.30967373541954,8.587213892940923,0,-1.7976931348623157e+308]},"properties":{"Name_First":"ADAMA II","Latitude_F":8.58721389294,"Longitude_":39.3096737354,"New_EEP_Re":"Central 2","Year_of_Op":"2022","NO_First":2,"Old_EEP_Re":"Central","Poletical_":"Oromiya","TYPE_First":"","VOLTAGE_LE":230,"Voltage_Sp":"33/230","Work_Unit_":"TSO","ORIG_FID":185}},
{"type":"Feature","geometry":{"type":"Point","coordinates":[39.10192576534473,8.596283123385287,0,-1.7976931348623157e+308]},"properties":{"Name_First":"Gorga shoe","Latitude_F":8.59628312339,"Longitude_":39.1019257653,"New_EEP_Re":"","Year_of_Op":"2022","NO_First":0,"Old_EEP_Re":"AAR","Poletical_":"Oromiya","TYPE_First":"","VOLTAGE_LE":132,"Voltage_Sp":"","Work_Unit_":"Industry","ORIG_FID":186}},
{"type":"Feature","geometry":{"type":"Point","coordinates":[39.03003411094597,8.615093854683135,0,-1.7976931348623157e+308]},"properties":{"Name_First":"ILALA GEDA","Latitude_F":8.61509385468,"Longitude_":39.0300341109,"New_EEP_Re":"Central 2","Year_of_Op":"1984","NO_First":27,"Old_EEP_Re":"Central","Poletical_":"Oromiya","TYPE_First":"GIS","VOLTAGE_LE":132,"Voltage_Sp":"132/15","Work_Unit_":"TSO","ORIG_FID":187}},
{"type":"Feature","geometry":{"type":"Point","coordinates":[40.72712578887186,9.213344498633774,0,-1.7976931348623157e+308]},"properties":{"Name_First":"MIESO TS","Latitude_F":9.21334449863,"Longitude_":40.7271257889,"New_EEP_Re":"","Year_of_Op":"2017","NO_First":24,"Old_EEP_Re":"East","Poletical_":"Oromiya","TYPE_First":"Traction Substation","VOLTAGE_LE":132,"Voltage_Sp":"","Work_Unit_":"Railway","ORIG_FID":188}},
{"type":"Feature","geometry":{"type":"Point","coordinates":[39.14172827878732,8.57292287459729,0,-1.7976931348623157e+308]},"properties":{"Name_First":"MOJO TS","Latitude_F":8.5729228746,"Longitude_":39.1417282788,"New_EEP_Re":"","Year_of_Op":"2017","NO_First":35,"Old_EEP_Re":"Central","Poletical_":"Oromiya","TYPE_First":"Traction Substation","VOLTAGE_LE":132,"Voltage_Sp":"230/15","Work_Unit_":"Railway","ORIG_FID":189}},
{"type":"Feature","geometry":{"type":"Point","coordinates":[37.38348279738039,7.8863228734838975,0,-1.7976931348623157e+308]},"properties":{"Name_First":"GILGEL GIBE I [OLD GIBE]","Latitude_F":7.88632287348,"Longitude_":37.3834827974,"New_EEP_Re":"","Year_of_Op":"","NO_First":0,"Old_EEP_Re":"South West","Poletical_":"","TYPE_First":"","VOLTAGE_LE":132,"Voltage_Sp":"","Work_Unit_":"TSO","ORIG_FID":190}},
{"type":"Feature","geometry":{"type":"Point","coordinates":[40.17697140889529,9.002800851111113,0,-1.7976931348623157e+308]},"properties":{"Name_First":"AWASH 7 KILO","Latitude_F":9.00280085111,"Longitude_":40.1769714089,"New_EEP_Re":"East 1","Year_of_Op":"1984","NO_First":0,"Old_EEP_Re":"Central","Poletical_":"Afar","TYPE_First":"","VOLTAGE_LE":230,"Voltage_Sp":"230/132/66/15","Work_Unit_":"TSO","ORIG_FID":191}},
{"type":"Feature","geometry":{"type":"Point","coordinates":[38.00457166406417,11.87021685051825,0,-1.7976931348623157e+308]},"properties":{"Name_First":"DEBRE TABOR","Latitude_F":11.8702168505,"Longitude_":38.0045716641,"New_EEP_Re":"North West","Year_of_Op":"","NO_First":0,"Old_EEP_Re":"North West","Poletical_":"","TYPE_First":"","VOLTAGE_LE":230,"Voltage_Sp":"","Work_Unit_":"TSO","ORIG_FID":192}},
{"type":"Feature","geometry":{"type":"Point","coordinates":[38.879530163378114,9.820120835260736,0,-1.7976931348623157e+308]},"properties":{"Name_First":"LEMI CEMENT","Latitude_F":0,"Longitude_":0,"New_EEP_Re":"","Year_of_Op":"","NO_First":0,"Old_EEP_Re":"","Poletical_":"","TYPE_First":"","VOLTAGE_LE":132,"Voltage_Sp":"","Work_Unit_":"TSO","ORIG_FID":193}},
{"type":"Feature","geometry":{"type":"Point","coordinates":[37.76860870306181,9.00162809442987,0,-1.7976931348623157e+308]},"properties":{"Name_First":"AMBO","Latitude_F":0,"Longitude_":0,"New_EEP_Re":"","Year_of_Op":"","NO_First":0,"Old_EEP_Re":"","Poletical_":"","TYPE_First":"","VOLTAGE_LE":0,"Voltage_Sp":"","Work_Unit_":"","ORIG_FID":194}},
{"type":"Feature","geometry":{"type":"Point","coordinates":[39.252595068643316,7.505538037948082,0,-1.7976931348623157e+308]},"properties":{"Name_First":"BEKOJI","Latitude_F":0,"Longitude_":0,"New_EEP_Re":"","Year_of_Op":"","NO_First":0,"Old_EEP_Re":"","Poletical_":"","TYPE_First":"","VOLTAGE_LE":230,"Voltage_Sp":"","Work_Unit_":"","ORIG_FID":195}},
{"type":"Feature","geometry":{"type":"Point","coordinates":[38.952886232655665,8.725352741259288,0,-1.7976931348623157e+308]},"properties":{"Name_First":"C&E BROTHERS","Latitude_F":0,"Longitude_":0,"New_EEP_Re":"","Year_of_Op":"","NO_First":0,"Old_EEP_Re":"","Poletical_":"","TYPE_First":"","VOLTAGE_LE":132,"Voltage_Sp":"","Work_Unit_":"","ORIG_FID":197}},
{"type":"Feature","geometry":{"type":"Point","coordinates":[36.55296508956025,6.565508788278773,0,-1.7976931348623157e+308]},"properties":{"Name_First":"KOYSHA","Latitude_F":0,"Longitude_":0,"New_EEP_Re":"","Year_of_Op":"","NO_First":0,"Old_EEP_Re":"","Poletical_":"","TYPE_First":"","VOLTAGE_LE":400,"Voltage_Sp":"","Work_Unit_":"","ORIG_FID":198}}
]}